[2026-04-03_13:07:44:622],A,3,,,,,,,,,,,,,1.05,0.72,0.77,3*02
[2026-04-03_13:07:44:622]$GNGSA,A,3,,,,,,,,,,,,,1.05,0.72,0.77,4*05
[2026-04-03_13:07:44:622]$GPGSV,3,1,11,194,54,115,,06,56,340,,41,54,229,37,19,50,013,29,1*51
[2026-04-03_13:07:44:622]$GPGSV,3,2,11,17,45,058,29,14,42,156,22,11,41,273,34,21,27,199,28,1*6C
[2026-04-03_13:07:44:622]$GPGSV,3,3,11,09,14,107,21,24,07,276,29,22,62,157,25,1*54
[2026-04-03_13:07:44:630]$GLGSV,2,1,05,88,35,004,19,65,29,096,28,79,27,321,30,66,17,147,28,1*7F
[2026-04-03_13:07:44:630]$GLGSV,2,2,05,78,61,257,32,1*44
[2026-04-03_13:07:44:630]$GAGSV,1,1,00,7*73
[2026-04-03_13:07:44:630]$GBGSV,1,1,00,1*76
[2026-04-03_13:07:44:630]$GNRMC,060745.000,A,2055.281665,N,10551.335513,E,0.16,000.00,030426,,,A,V*00
[2026-04-03_13:07:44:630]$GNVTG,000.00,T,,M,0.16,N,0.30,K,A*27
[2026-04-03_13:07:45:027]$GNGGA,060746.000,2055.281683,N,10551.335699,E,1,13,0.72,8.385,M,-20.559,M,,*51
[2026-04-03_13:07:45:027]$GNGLL,2055.281683,N,10551.335699,E,060746.000,A,A*43
[2026-04-03_13:07:45:027]$GNGSA,A,3,19,17,14,11,21,09,24,22,,,,,1.05,0.72,0.77,1*07
[2026-04-03_13:07:45:027]$GNGSA,A,3,88,65,79,66,78,,,,,,,,1.05,0.72,0.77,2*01
[2026-04-03_13:07:45:027]$GNGSA,A,3,,,,,,,,,,,,,1.05,0.72,0.77,3*02
[2026-04-03_13:07:45:051]$GNGSA,A,3,,,,,,,,,,,,,1.05,0.72,0.77,4*05
[2026-04-03_13:07:45:051]$GPGSV,3,1,11,194,54,115,,06,56,340,,41,54,229,37,19,50,013,28,1*50
[2026-04-03_13:07:45:051]$GPGSV,3,2,11,17,45,058,28,14,42,156,23,11,41,273,34,21,27,199,28,1*6C
[2026-04-03_13:07:45:051]$GPGSV,3,3,11,09,14,107,20,24,07,276,29,22,62,157,26,1*56
[2026-04-03_13:07:45:070]$GLGSV,2,1,05,88,35,004,19,65,29,096,28,79,27,321,29,66,17,147,29,1*76
[2026-04-03_13:07:45:070]$GLGSV,2,2,05,78,61,257,32,1*44
[2026-04-03_13:07:45:070]$GAGSV,1,1,00,7*73
[2026-04-03_13:07:45:070]$GBGSV,1,1,00,1*76
[2026-04-03_13:07:45:070]$GNRMC,060746.000,A,2055.281683,N,10551.335699,E,0.27,000.00,030426,,,A,V*08
[2026-04-03_13:07:45:070]$GNVTG,000.00,T,,M,0.27,N,0.50,K,A*23
[2026-04-03_13:07:46:022]$GNGGA,060747.000,2055.281629,N,10551.335741,E,1,14,0.71,8.100,M,-20.559,M,,*5F
[2026-04-03_13:07:46:022]$GNGLL,2055.281629,N,10551.335741,E,060747.000,A,A*46
[2026-04-03_13:07:46:022]$GNGSA,A,3,194,19,17,14,11,21,09,24,22,,,,1.04,0.71,0.76,1*38
[2026-04-03_13:07:46:022]$GNGSA,A,3,88,65,79,66,78,,,,,,,,1.04,0.71,0.76,2*02
[2026-04-03_13:07:46:022]$GNGSA,A,3,,,,,,,,,,,,,1.04,0.71,0.76,3*01
[2026-04-03_13:07:46:061]$GNGSA,A,3,,,,,,,,,,,,,1.04,0.71,0.76,4*06
[2026-04-03_13:07:46:061]$GPGSV,3,1,11,194,54,115,18,06,56,340,,41,54,229,37,19,50,013,28,1*59
[2026-04-03_13:07:46:061]$GPGSV,3,2,11,17,45,058,28,14,42,156,24,11,41,273,34,21,27,199,27,1*64
[2026-04-03_13:07:46:061]$GPGSV,3,3,11,09,14,107,19,24,07,276,29,22,62,157,27,1*5D
[2026-04-03_13:07:46:093]$GLGSV,2,1,05,88,35,004,19,65,29,096,28,79,27,321,29,66,17,147,29,1*76
[2026-04-03_13:07:46:093]$GLGSV,2,2,05,78,61,257,32,1*44
[2026-04-03_13:07:46:093]$GAGSV,1,1,00,7*73
[2026-04-03_13:07:46:093]$GBGSV,1,1,00,1*76
[2026-04-03_13:07:46:093]$GNRMC,060747.000,A,2055.281629,N,10551.335741,E,0.13,000.00,030426,,,A,V*0A
[2026-04-03_13:07:46:093]$GNVTG,000.00,T,,M,0.13,N,0.24,K,A*27
[2026-04-03_13:07:47:026]$GNGGA,060748.000,2055.281677,N,10551.335736,E,1,14,0.71,7.599,M,-20.560,M,,*5A
[2026-04-03_13:07:47:026]$GNGLL,2055.281677,N,10551.335736,E,060748.000,A,A*42
[2026-04-03_13:07:47:026]$GNGSA,A,3,194,19,17,14,11,21,09,24,22,,,,1.04,0.71,0.76,1*38
[2026-04-03_13:07:47:026]$GNGSA,A,3,88,65,79,66,78,,,,,,,,1.04,0.71,0.76,2*02
[2026-04-03_13:07:47:026]$GNGSA,A,3,,,,,,,,,,,,,1.04,0.71,0.76,3*01
[2026-04-03_13:07:47:101]$GNGSA,A,3,,,,,,,,,,,,,1.04,0.71,0.76,4*06
[2026-04-03_13:07:47:101]$GPGSV,3,1,11,194,54,115,18,06,56,340,,41,54,229,37,19,50,013,28,1*59
[2026-04-03_13:07:47:101]$GPGSV,3,2,11,17,45,058,28,14,42,156,25,11,41,273,34,21,27,199,26,1*64
[2026-04-03_13:07:47:101]$GPGSV,3,3,11,09,14,107,20,24,07,276,29,22,62,157,28,1*58
[2026-04-03_13:07:47:175]$GLGSV,2,1,05,88,35,004,19,65,29,096,28,79,27,321,29,66,17,147,29,1*76
[2026-04-03_13:07:47:175]$GLGSV,2,2,05,78,61,257,32,1*44
[2026-04-03_13:07:47:175]$GAGSV,1,1,00,7*73
[2026-04-03_13:07:47:175]$GBGSV,1,1,00,1*76
[2026-04-03_13:07:47:175]$GNRMC,060748.000,A,2055.281677,N,10551.335736,E,0.02,000.00,030426,,,A,V*0E
[2026-04-03_13:07:47:175]$GNVTG,000.00,T,,M,0.02,N,0.04,K,A*25
[2026-04-03_13:07:48:022]$GNGGA,060749.000,2055.281677,N,10551.335753,E,1,14,0.71,7.111,M,-20.560,M,,*5C
[2026-04-03_13:07:48:022]$GNGLL,2055.281677,N,10551.335753,E,060749.000,A,A*40
[2026-04-03_13:07:48:022]$GNGSA,A,3,194,19,17,14,11,21,09,24,22,,,,1.04,0.71,0.76,1*38
[2026-04-03_13:07:48:022]$GNGSA,A,3,88,65,79,66,78,,,,,,,,1.04,0.71,0.76,2*02
[2026-04-03_13:07:48:022]$GNGSA,A,3,,,,,,,,,,,,,1.04,0.71,0.76,3*01
[2026-04-03_13:07:48:083]$GNGSA,A,3,,,,,,,,,,,,,1.04,0.71,0.76,4*06
[2026-04-03_13:07:48:083]$GPGSV,3,1,11,194,54,115,17,06,56,340,,41,54,229,37,19,50,013,28,1*56
[2026-04-03_13:07:48:083]$GPGSV,3,2,11,17,45,058,28,14,42,156,25,11,41,273,34,21,27,199,26,1*64
[2026-04-03_13:07:48:083]$GPGSV,3,3,11,09,14,107,25,24,07,276,29,22,62,157,29,1*5C
[2026-04-03_13:07:48:141]$GLGSV,2,1,05,88,35,004,19,65,29,096,28,79,27,321,29,66,17,147,29,1*76
[2026-04-03_13:07:48:141]$GLGSV,2,2,05,78,61,257,32,1*44
[2026-04-03_13:07:48:141]$GAGSV,1,1,00,7*73
[2026-04-03_13:07:48:141]$GBGSV,1,1,00,1*76
[2026-04-03_13:07:48:141]$GNRMC,060749.000,A,2055.281677,N,10551.335753,E,0.17,000.00,030426,,,A,V*08
[2026-04-03_13:07:48:141]$GNVTG,000.00,T,,M,0.17,N,0.31,K,A*27
[2026-04-03_13:07:49:024]$GNGGA,060750.000,2055.281971,N,10551.335909,E,1,14,0.71,6.687,M,-20.560,M,,*55
[2026-04-03_13:07:49:024]$GNGLL,2055.281971,N,10551.335909,E,060750.000,A,A*40
[2026-04-03_13:07:49:024]$GNGSA,A,3,194,19,17,14,11,21,09,24,22,,,,1.04,0.71,0.76,1*38
[2026-04-03_13:07:49:024]$GNGSA,A,3,88,65,79,66,78,,,,,,,,1.04,0.71,0.76,2*02
[2026-04-03_13:07:49:024]$GNGSA,A,3,,,,,,,,,,,,,1.04,0.71,0.76,3*01
[2026-04-03_13:07:49:090]$GNGSA,A,3,,,,,,,,,,,,,1.04,0.71,0.76,4*06
[2026-04-03_13:07:49:090]$GPGSV,3,1,11,194,54,115,16,06,56,340,,41,54,229,38,19,50,013,28,1*58
[2026-04-03_13:07:49:090]$GPGSV,3,2,11,17,45,058,28,14,42,156,26,11,41,273,34,21,27,199,27,1*66
[2026-04-03_13:07:49:090]$GPGSV,3,3,11,09,14,107,25,24,07,276,29,22,62,157,29,1*5C
[2026-04-03_13:07:49:158]$GLGSV,2,1,05,88,35,004,20,65,29,096,28,79,27,321,29,66,17,147,28,1*7D
[2026-04-03_13:07:49:158]$GLGSV,2,2,05,78,61,257,32,1*44
[2026-04-03_13:07:49:158]$GAGSV,1,1,00,7*73
[2026-04-03_13:07:49:158]$GBGSV,1,1,00,1*76
[2026-04-03_13:07:49:158]$GNRMC,060750.000,A,2055.281971,N,10551.335909,E,0.09,000.00,030426,,,A,V*07
[2026-04-03_13:07:49:158]$GNVTG,000.00,T,,M,0.09,N,0.17,K,A*2C
[2026-04-03_13:07:50:026]$GNGGA,060751.000,2055.282247,N,10551.336149,E,1,14,0.71,6.629,M,-20.559,M,,*58
[2026-04-03_13:07:50:026]$GNGLL,2055.282247,N,10551.336149,E,060751.000,A,A*43
[2026-04-03_13:07:50:026]$GNGSA,A,3,194,19,17,14,11,21,09,24,22,,,,1.04,0.71,0.76,1*38
[2026-04-03_13:07:50:026]$GNGSA,A,3,88,65,79,66,78,,,,,,,,1.04,0.71,0.76,2*02
[2026-04-03_13:07:50:026]$GNGSA,A,3,,,,,,,,,,,,,1.04,0.71,0.76,3*01
[2026-04-03_13:07:50:085]$GNGSA,A,3,,,,,,,,,,,,,1.04,0.71,0.76,4*06
[2026-04-03_13:07:50:085]$GPGSV,3,1,11,194,54,115,14,06,56,340,,41,54,229,38,19,50,013,28,1*5A
[2026-04-03_13:07:50:085]$GPGSV,3,2,11,17,45,058,29,14,42,156,26,11,41,273,34,21,27,199,28,1*68
[2026-04-03_13:07:50:085]$GPGSV,3,3,11,09,14,107,27,24,07,276,29,22,62,157,30,1*56
[2026-04-03_13:07:50:141]$GLGSV,2,1,05,88,35,004,20,65,29,096,27,79,27,321,29,66,17,147,28,1*72
[2026-04-03_13:07:50:141]$GLGSV,2,2,05,78,61,257,32,1*44
[2026-04-03_13:07:50:141]$GAGSV,1,1,00,7*73
[2026-04-03_13:07:50:141]$GBGSV,1,1,00,1*76
[2026-04-03_13:07:50:141]$GNRMC,060751.000,A,2055.282247,N,10551.336149,E,0.10,000.00,030426,,,A,V*0C
[2026-04-03_13:07:50:141]$GNVTG,000.00,T,,M,0.10,N,0.18,K,A*2B
[2026-04-03_13:07:51:025]$GNGGA,060752.000,2055.282427,N,10551.336324,E,1,14,0.71,6.381,M,-20.560,M,,*5F
[2026-04-03_13:07:51:025]$GNGLL,2055.282427,N,10551.336324,E,060752.000,A,A*49
[2026-04-03_13:07:51:025]$GNGSA,A,3,194,19,17,14,11,21,09,24,22,,,,1.04,0.71,0.76,1*38
[2026-04-03_13:07:51:025]$GNGSA,A,3,88,65,79,66,78,,,,,,,,1.04,0.71,0.76,2*02
[2026-04-03_13:07:51:025]$GNGSA,A,3,,,,,,,,,,,,,1.04,0.71,0.76,3*01
[2026-04-03_13:07:51:075]$GNGSA,A,3,,,,,,,,,,,,,1.04,0.71,0.76,4*06
[2026-04-03_13:07:51:075]$GPGSV,3,1,11,194,54,115,14,06,56,340,,41,54,229,38,19,50,013,29,1*5B
[2026-04-03_13:07:51:075]$GPGSV,3,2,11,17,45,058,30,14,42,156,26,11,41,273,34,21,27,199,28,1*60
[2026-04-03_13:07:51:075]$GPGSV,3,3,11,09,14,107,25,24,07,276,29,22,62,157,31,1*55
[2026-04-03_13:07:51:171]$GLGSV,2,1,05,88,35,004,20,65,29,096,26,79,27,321,29,66,17,147,28,1*73
[2026-04-03_13:07:51:171]$GLGSV,2,2,05,78,61,257,32,1*44
[2026-04-03_13:07:51:171]$GAGSV,1,1,00,7*73
[2026-04-03_13:07:51:171]$GBGSV,1,1,00,1*76
[2026-04-03_13:07:51:171]$GNRMC,060752.000,A,2055.282427,N,10551.336324,E,0.17,000.00,030426,,,A,V*01
[2026-04-03_13:07:51:171]$GNVTG,000.00,T,,M,0.17,N,0.31,K,A*27
[2026-04-03_13:07:52:021]$GNGGA,060753.000,2055.282595,N,10551.336426,E,1,14,0.71,6.257,M,-20.559,M,,*53
[2026-04-03_13:07:52:021]$GNGLL,2055.282595,N,10551.336426,E,060753.000,A,A*45
[2026-04-03_13:07:52:021]$GNGSA,A,3,194,19,17,14,11,21,09,24,22,,,,1.04,0.71,0.76,1*38
[2026-04-03_13:07:52:021]$GNGSA,A,3,88,65,79,66,78,,,,,,,,1.04,0.71,0.76,2*02
[2026-04-03_13:07:52:021]$GNGSA,A,3,,,,,,,,,,,,,1.04,0.71,0.76,3*01
[2026-04-03_13:07:52:075]$GNGSA,A,3,,,,,,,,,,,,,1.04,0.71,0.76,4*06
[2026-04-03_13:07:52:075]$GPGSV,3,1,11,194,54,115,15,06,56,340,,41,54,229,38,19,50,013,29,1*5A
[2026-04-03_13:07:52:075]$GPGSV,3,2,11,17,45,058,30,14,42,156,26,11,41,273,34,21,27,199,28,1*60
[2026-04-03_13:07:52:075]$GPGSV,3,3,11,09,14,107,25,24,07,276,29,22,62,158,32,1*59
[2026-04-03_13:07:52:128]$GLGSV,2,1,05,88,35,004,20,65,29,096,26,79,27,321,29,66,17,147,28,1*73
[2026-04-03_13:07:52:128]$GLGSV,2,2,05,78,61,257,33,1*45
[2026-04-03_13:07:52:128]$GAGSV,1,1,00,7*73
[2026-04-03_13:07:52:128]$GBGSV,1,1,00,1*76
[2026-04-03_13:07:52:128]$GNRMC,060753.000,A,2055.282595,N,10551.336426,E,0.15,000.00,030426,,,A,V*0F
[2026-04-03_13:07:52:128]$GNVTG,000.00,T,,M,0.15,N,0.27,K,A*22
[2026-04-03_13:07:53:024]$GNGGA,060754.000,2055.282644,N,10551.336479,E,1,14,0.71,6.241,M,-20.559,M,,*56
[2026-04-03_13:07:53:024]$GNGLL,2055.282644,N,10551.336479,E,060754.000,A,A*47
[2026-04-03_13:07:53:024]$GNGSA,A,3,194,19,17,14,11,21,09,24,22,,,,1.04,0.71,0.76,1*38
[2026-04-03_13:07:53:024]$GNGSA,A,3,88,65,79,66,78,,,,,,,,1.04,0.71,0.76,2*02
[2026-04-03_13:07:53:024]$GNGSA,A,3,,,,,,,,,,,,,1.04,0.71,0.76,3*01
[2026-04-03_13:07:53:089]$GNGSA,A,3,,,,,,,,,,,,,1.04,0.71,0.76,4*06
[2026-04-03_13:07:53:089]$GPGSV,3,1,11,194,54,115,16,06,56,340,,41,54,229,38,19,50,013,29,1*59
[2026-04-03_13:07:53:089]$GPGSV,3,2,11,17,45,058,30,14,42,156,26,11,41,273,33,21,27,199,28,1*67
[2026-04-03_13:07:53:089]$GPGSV,3,3,11,09,14,107,27,24,07,276,29,22,62,158,33,1*5A
[2026-04-03_13:07:53:162]$GLGSV,2,1,05,88,35,004,20,65,29,096,26,79,27,321,29,66,17,147,28,1*73
[2026-04-03_13:07:53:162]$GLGSV,2,2,05,78,61,257,33,1*45
[2026-04-03_13:07:53:162]$GAGSV,1,1,00,7*73
[2026-04-03_13:07:53:162]$GBGSV,1,1,00,1*76
[2026-04-03_13:07:53:162]$GNRMC,060754.000,A,2055.282644,N,10551.336479,E,0.10,000.00,030426,,,A,V*08
[2026-04-03_13:07:53:162]$GNVTG,000.00,T,,M,0.10,N,0.19,K,A*2A
[2026-04-03_13:07:54:025]$GNGGA,060755.000,2055.282739,N,10551.336563,E,1,14,0.71,6.152,M,-20.560,M,,*5D
[2026-04-03_13:07:54:025]$GNGLL,2055.282739,N,10551.336563,E,060755.000,A,A*47
[2026-04-03_13:07:54:025]$GNGSA,A,3,194,19,17,14,11,21,09,24,22,,,,1.04,0.71,0.76,1*38
[2026-04-03_13:07:54:025]$GNGSA,A,3,88,65,79,66,78,,,,,,,,1.04,0.71,0.76,2*02
[2026-04-03_13:07:54:025]$GNGSA,A,3,,,,,,,,,,,,,1.04,0.71,0.76,3*01
[2026-04-03_13:07:54:082]$GNGSA,A,3,,,,,,,,,,,,,1.04,0.71,0.76,4*06
[2026-04-03_13:07:54:082]$GPGSV,3,1,11,194,54,115,16,06,56,340,,41,54,229,38,19,50,013,29,1*59
[2026-04-03_13:07:54:082]$GPGSV,3,2,11,17,45,058,31,14,42,156,26,11,41,273,33,21,27,199,27,1*69
[2026-04-03_13:07:54:082]$GPGSV,3,3,11,09,14,107,26,24,07,275,29,22,62,158,33,1*58
[2026-04-03_13:07:54:146]$GLGSV,2,1,05,88,35,004,21,65,29,096,26,79,27,321,29,66,17,147,28,1*72
[2026-04-03_13:07:54:146]$GLGSV,2,2,05,78,61,257,33,1*45
[2026-04-03_13:07:54:146]$GAGSV,1,1,00,7*73
[2026-04-03_13:07:54:146]$GBGSV,1,1,00,1*76
[2026-04-03_13:07:54:146]$GNRMC,060755.000,A,2055.282739,N,10551.336563,E,0.11,000.00,030426,,,A,V*09
[2026-04-03_13:07:54:146]$GNVTG,000.00,T,,M,0.11,N,0.21,K,A*20
[2026-04-03_13:07:55:023]$GNGGA,060756.000,2055.282781,N,10551.336551,E,1,14,0.71,6.137,M,-20.559,M,,*55
[2026-04-03_13:07:55:023]$GNGLL,2055.282781,N,10551.336551,E,060756.000,A,A*46
[2026-04-03_13:07:55:023]$GNGSA,A,3,194,19,17,14,11,21,09,24,22,,,,1.04,0.71,0.76,1*38
[2026-04-03_13:07:55:023]$GNGSA,A,3,88,65,79,66,78,,,,,,,,1.04,0.71,0.76,2*02
[2026-04-03_13:07:55:023]$GNGSA,A,3,,,,,,,,,,,,,1.04,0.71,0.76,3*01
[2026-04-03_13:07:55:088]$GNGSA,A,3,,,,,,,,,,,,,1.04,0.71,0.76,4*06
[2026-04-03_13:07:55:088]$GPGSV,3,1,11,194,54,115,16,06,56,340,,41,54,229,38,19,50,013,29,1*59
[2026-04-03_13:07:55:088]$GPGSV,3,2,11,17,45,058,31,14,42,156,26,11,41,273,32,21,27,199,25,1*6A
[2026-04-03_13:07:55:088]$GPGSV,3,3,11,09,14,107,27,24,07,275,29,22,62,158,33,1*59
[2026-04-03_13:07:55:153]$GLGSV,2,1,05,88,35,004,22,65,29,096,26,79,27,321,29,66,17,147,28,1*71
[2026-04-03_13:07:55:153]$GLGSV,2,2,05,78,61,257,33,1*45
[2026-04-03_13:07:55:153]$GAGSV,1,1,00,7*73
[2026-04-03_13:07:55:153]$GBGSV,1,1,00,1*76
[2026-04-03_13:07:55:153]$GNRMC,060756.000,A,2055.282781,N,10551.336551,E,0.15,000.00,030426,,,A,V*0C
[2026-04-03_13:07:55:153]$GNVTG,000.00,T,,M,0.15,N,0.27,K,A*22
[2026-04-03_13:07:56:019]$GNGGA,060757.000,2055.282847,N,10551.336563,E,1,14,0.71,6.030,M,-20.560,M,,*5C
[2026-04-03_13:07:56:019]$GNGLL,2055.282847,N,10551.336563,E,060757.000,A,A*43
[2026-04-03_13:07:56:019]$GNGSA,A,3,194,19,17,14,11,21,09,24,22,,,,1.04,0.71,0.76,1*38
[2026-04-03_13:07:56:019]$GNGSA,A,3,88,65,79,66,78,,,,,,,,1.04,0.71,0.76,2*02
[2026-04-03_13:07:56:019]$GNGSA,A,3,,,,,,,,,,,,,1.04,0.71,0.76,3*01
[2026-04-03_13:07:56:085]$GNGSA,A,3,,,,,,,,,,,,,1.04,0.71,0.76,4*06
[2026-04-03_13:07:56:085]$GPGSV,3,1,11,194,54,115,16,06,56,340,,41,54,229,38,19,50,013,29,1*59
[2026-04-03_13:07:56:085]$GPGSV,3,2,11,17,45,058,31,14,42,156,27,11,41,273,31,21,27,199,24,1*69
[2026-04-03_13:07:56:085]$GPGSV,3,3,11,09,14,107,26,24,07,275,29,22,62,158,33,1*58
[2026-04-03_13:07:56:149]$GLGSV,2,1,05,88,35,004,22,65,29,096,26,79,27,321,29,66,17,147,28,1*71
[2026-04-03_13:07:56:149]$GLGSV,2,2,05,78,61,257,33,1*45
[2026-04-03_13:07:56:149]$GAGSV,1,1,00,7*73
[2026-04-03_13:07:56:149]$GBGSV,1,1,00,1*76
[2026-04-03_13:07:56:149]$GNRMC,060757.000,A,2055.282847,N,10551.336563,E,0.10,000.00,030426,,,A,V*0C
[2026-04-03_13:07:56:149]$GNVTG,000.00,T,,M,0.10,N,0.18,K,A*2B
[2026-04-03_13:07:57:022]$GNGGA,060758.000,2055.282919,N,10551.336563,E,1,14,0.71,5.888,M,-20.560,M,,*51
[2026-04-03_13:07:57:022]$GNGLL,2055.282919,N,10551.336563,E,060758.000,A,A*46
[2026-04-03_13:07:57:022]$GNGSA,A,3,194,19,17,14,11,21,09,24,22,,,,1.04,0.71,0.76,1*38
[2026-04-03_13:07:57:022]$GNGSA,A,3,88,65,79,66,78,,,,,,,,1.04,0.71,0.76,2*02
[2026-04-03_13:07:57:022]$GNGSA,A,3,,,,,,,,,,,,,1.04,0.71,0.76,3*01
[2026-04-03_13:07:57:093]$GNGSA,A,3,,,,,,,,,,,,,1.04,0.71,0.76,4*06
[2026-04-03_13:07:57:093]$GPGSV,3,1,11,194,54,115,16,06,56,340,,41,54,229,38,19,50,013,29,1*59
[2026-04-03_13:07:57:093]$GPGSV,3,2,11,17,45,058,31,14,42,156,28,11,41,273,31,21,27,199,22,1*60
[2026-04-03_13:07:57:093]$GPGSV,3,3,11,09,14,107,26,24,07,275,29,22,62,158,34,1*5F
[2026-04-03_13:07:57:155]$GLGSV,2,1,05,88,35,004,22,65,29,096,25,79,27,321,29,66,17,147,28,1*72
[2026-04-03_13:07:57:155]$GLGSV,2,2,05,78,61,257,33,1*45
[2026-04-03_13:07:57:155]$GAGSV,1,1,00,7*73
[2026-04-03_13:07:57:155]$GBGSV,1,1,00,1*76
[2026-04-03_13:07:57:155]$GNRMC,060758.000,A,2055.282919,N,10551.336563,E,0.06,000.00,030426,,,A,V*0E
[2026-04-03_13:07:57:155]$GNVTG,000.00,T,,M,0.06,N,0.12,K,A*26
[2026-04-03_13:07:58:024]$GNGGA,060759.000,2055.283081,N,10551.336545,E,1,14,0.71,5.929,M,-20.560,M,,*57
[2026-04-03_13:07:58:024]$GNGLL,2055.283081,N,10551.336545,E,060759.000,A,A*4A
[2026-04-03_13:07:58:024]$GNGSA,A,3,194,19,17,14,11,21,09,24,22,,,,1.04,0.71,0.76,1*38
[2026-04-03_13:07:58:024]$GNGSA,A,3,88,65,79,66,78,,,,,,,,1.04,0.71,0.76,2*02
[2026-04-03_13:07:58:024]$GNGSA,A,3,,,,,,,,,,,,,1.04,0.71,0.76,3*01
[2026-04-03_13:07:58:080]$GNGSA,A,3,,,,,,,,,,,,,1.04,0.71,0.76,4*06
[2026-04-03_13:07:58:080]$GPGSV,3,1,11,194,54,115,16,06,56,340,,41,54,229,38,19,50,013,29,1*59
[2026-04-03_13:07:58:080]$GPGSV,3,2,11,17,45,058,31,14,42,156,29,11,41,273,31,21,27,199,20,1*63
[2026-04-03_13:07:58:080]$GPGSV,3,3,11,09,14,107,26,24,07,275,30,22,62,158,34,1*57
[2026-04-03_13:07:58:153]$GLGSV,2,1,05,88,35,004,22,65,29,096,24,79,27,321,29,66,17,147,27,1*7C
[2026-04-03_13:07:58:153]$GLGSV,2,2,05,78,61,257,33,1*45
[2026-04-03_13:07:58:153]$GAGSV,1,1,00,7*73
[2026-04-03_13:07:58:153]$GBGSV,1,1,00,1*76
[2026-04-03_13:07:58:153]$GNRMC,060759.000,A,2055.283081,N,10551.336545,E,0.18,000.00,030426,,,A,V*0D
[2026-04-03_13:07:58:153]$GNVTG,000.00,T,,M,0.18,N,0.33,K,A*2A
[2026-04-03_13:07:59:022]$GNGGA,060800.000,2055.283087,N,10551.336527,E,1,14,0.71,5.899,M,-20.560,M,,*5C
[2026-04-03_13:07:59:022]$GNGLL,2055.283087,N,10551.336527,E,060800.000,A,A*4B
[2026-04-03_13:07:59:022]$GNGSA,A,3,194,19,17,14,11,21,09,24,22,,,,1.04,0.71,0.76,1*38
[2026-04-03_13:07:59:022]$GNGSA,A,3,88,65,79,66,78,,,,,,,,1.04,0.71,0.76,2*02
[2026-04-03_13:07:59:022]$GNGSA,A,3,,,,,,,,,,,,,1.04,0.71,0.76,3*01
[2026-04-03_13:07:59:089]$GNGSA,A,3,,,,,,,,,,,,,1.04,0.71,0.76,4*06
[2026-04-03_13:07:59:089]$GPGSV,3,1,11,194,54,115,16,06,56,340,,41,54,229,39,19,50,013,29,1*58
[2026-04-03_13:07:59:089]$GPGSV,3,2,11,17,45,058,32,14,42,156,30,11,41,273,31,21,27,199,20,1*68
[2026-04-03_13:07:59:089]$GPGSV,3,3,11,09,14,107,26,24,07,275,30,22,62,158,34,1*57
[2026-04-03_13:07:59:149]$GLGSV,2,1,05,88,35,004,22,65,29,096,24,79,27,321,29,66,17,147,27,1*7C
[2026-04-03_13:07:59:149]$GLGSV,2,2,05,78,61,257,33,1*45
[2026-04-03_13:07:59:149]$GAGSV,1,1,00,7*73
[2026-04-03_13:07:59:149]$GBGSV,1,1,00,1*76
[2026-04-03_13:07:59:149]$GNRMC,060800.000,A,2055.283087,N,10551.336527,E,0.07,000.00,030426,,,A,V*02
[2026-04-03_13:07:59:149]$GNVTG,000.00,T,,M,0.07,N,0.13,K,A*26
[2026-04-03_13:08:00:032]$GNGGA,060801.000,2055.283165,N,10551.336545,E,1,14,0.71,5.417,M,-20.559,M,,*54
[2026-04-03_13:08:00:032]$GNGLL,2055.283165,N,10551.336545,E,060801.000,A,A*43
[2026-04-03_13:08:00:032]$GNGSA,A,3,194,19,17,14,11,21,09,24,22,,,,1.04,0.71,0.76,1*38
[2026-04-03_13:08:00:032]$GNGSA,A,3,88,65,79,66,78,,,,,,,,1.04,0.71,0.76,2*02
[2026-04-03_13:08:00:032]$GNGSA,A,3,,,,,,,,,,,,,1.04,0.71,0.76,3*01
[2026-04-03_13:08:00:097]$GNGSA,A,3,,,,,,,,,,,,,1.04,0.71,0.76,4*06
[2026-04-03_13:08:00:097]$GPGSV,3,1,11,194,54,115,16,06,56,340,,41,54,229,38,19,50,013,29,1*59
[2026-04-03_13:08:00:097]$GPGSV,3,2,11,17,45,058,33,14,42,156,30,11,41,273,30,21,27,199,22,1*6A
[2026-04-03_13:08:00:097]$GPGSV,3,3,11,09,14,107,19,24,07,275,30,22,62,158,35,1*5A
[2026-04-03_13:08:00:165]$GLGSV,2,1,05,88,35,004,22,65,29,096,31,79,27,321,29,66,17,147,28,1*77
[2026-04-03_13:08:00:165]$GLGSV,2,2,05,78,61,257,34,1*42
[2026-04-03_13:08:00:165]$GAGSV,1,1,00,7*73
[2026-04-03_13:08:00:165]$GBGSV,1,1,00,1*76
[2026-04-03_13:08:00:165]$GNRMC,060801.000,A,2055.283165,N,10551.336545,E,0.16,000.00,030426,,,A,V*0A
[2026-04-03_13:08:00:165]$GNVTG,000.00,T,,M,0.16,N,0.30,K,A*27
[2026-04-03_13:08:01:029]$GNGGA,060802.000,2055.283255,N,10551.336485,E,1,14,0.71,5.286,M,-20.560,M,,*5E
[2026-04-03_13:08:01:029]$GNGLL,2055.283255,N,10551.336485,E,060802.000,A,A*4D
[2026-04-03_13:08:01:029]$GNGSA,A,3,194,19,17,14,11,21,09,24,22,,,,1.04,0.71,0.76,1*38
[2026-04-03_13:08:01:029]$GNGSA,A,3,88,65,79,66,78,,,,,,,,1.04,0.71,0.76,2*02
[2026-04-03_13:08:01:029]$GNGSA,A,3,,,,,,,,,,,,,1.04,0.71,0.76,3*01
[2026-04-03_13:08:01:110]$GNGSA,A,3,,,,,,,,,,,,,1.04,0.71,0.76,4*06
[2026-04-03_13:08:01:110]$GPGSV,3,1,11,194,54,115,17,06,56,340,,41,54,229,38,19,50,013,29,1*58
[2026-04-03_13:08:01:110]$GPGSV,3,2,11,17,45,058,33,14,42,156,30,11,41,273,30,21,27,199,21,1*69
[2026-04-03_13:08:01:110]$GPGSV,3,3,11,09,14,107,21,24,07,275,30,22,62,158,35,1*51
[2026-04-03_13:08:01:195]$GLGSV,2,1,05,88,35,004,22,65,29,096,24,79,27,321,29,66,17,147,28,1*73
[2026-04-03_13:08:01:195]$GLGSV,2,2,05,78,61,257,34,1*42
[2026-04-03_13:08:01:195]$GAGSV,1,1,00,7*73
[2026-04-03_13:08:01:195]$GBGSV,1,1,00,1*76
[2026-04-03_13:08:01:195]$GNRMC,060802.000,A,2055.283255,N,10551.336485,E,0.19,000.00,030426,,,A,V*0B
[2026-04-03_13:08:01:195]$GNVTG,000.00,T,,M,0.19,N,0.36,K,A*2E
[2026-04-03_13:08:02:024]$GNGGA,060803.000,2055.283244,N,10551.336431,E,1,14,0.71,5.170,M,-20.560,M,,*5A
[2026-04-03_13:08:02:024]$GNGLL,2055.283244,N,10551.336431,E,060803.000,A,A*43
[2026-04-03_13:08:02:024]$GNGSA,A,3,194,19,17,14,11,21,09,24,22,,,,1.04,0.71,0.76,1*38
[2026-04-03_13:08:02:024]$GNGSA,A,3,88,65,79,66,78,,,,,,,,1.04,0.71,0.76,2*02
[2026-04-03_13:08:02:024]$GNGSA,A,3,,,,,,,,,,,,,1.04,0.71,0.76,3*01
[2026-04-03_13:08:02:055]$GNGSA,A,3,,,,,,,,,,,,,1.04,0.71,0.76,4*06
[2026-04-03_13:08:02:055]$GPGSV,3,1,11,194,54,115,17,06,56,340,,41,54,229,38,19,50,013,29,1*58
[2026-04-03_13:08:02:055]$GPGSV,3,2,11,17,45,058,33,14,42,156,30,11,41,273,30,21,27,199,21,1*69
[2026-04-03_13:08:02:055]$GPGSV,3,3,11,09,14,107,23,24,07,275,30,22,62,158,35,1*53
[2026-04-03_13:08:02:090]$GLGSV,2,1,05,88,35,004,22,65,29,096,24,79,27,321,29,66,17,147,28,1*73
[2026-04-03_13:08:02:090]$GLGSV,2,2,05,78,61,257,34,1*42
[2026-04-03_13:08:02:090]$GAGSV,1,1,00,7*73
[2026-04-03_13:08:02:090]$GBGSV,1,1,00,1*76
[2026-04-03_13:08:02:090]$GNRMC,060803.000,A,2055.283244,N,10551.336431,E,0.13,000.00,030426,,,A,V*0F
[2026-04-03_13:08:02:090]$GNVTG,000.00,T,,M,0.13,N,0.24,K,A*27
[2026-04-03_13:08:03:020]$GNGGA,060804.000,2055.283327,N,10551.336396,E,1,14,0.71,4.983,M,-20.560,M,,*56
[2026-04-03_13:08:03:020]$GNGLL,2055.283327,N,10551.336396,E,060804.000,A,A*4A
[2026-04-03_13:08:03:020]$GNGSA,A,3,194,19,17,14,11,21,09,24,22,,,,1.04,0.71,0.76,1*38
[2026-04-03_13:08:03:020]$GNGSA,A,3,88,65,79,66,78,,,,,,,,1.04,0.71,0.76,2*02
[2026-04-03_13:08:03:020]$GNGSA,A,3,,,,,,,,,,,,,1.04,0.71,0.76,3*01
[2026-04-03_13:08:03:057]$GNGSA,A,3,,,,,,,,,,,,,1.04,0.71,0.76,4*06
[2026-04-03_13:08:03:057]$GPGSV,3,1,11,194,54,115,17,06,56,340,,41,54,229,38,19,50,013,29,1*58
[2026-04-03_13:08:03:057]$GPGSV,3,2,11,17,45,058,33,14,42,156,30,11,41,273,30,21,27,199,21,1*69
[2026-04-03_13:08:03:057]$GPGSV,3,3,11,09,14,107,24,24,07,275,30,22,62,158,35,1*54
[2026-04-03_13:08:03:092]$GLGSV,2,1,05,88,35,004,22,65,29,096,23,79,27,321,29,66,17,147,28,1*74
[2026-04-03_13:08:03:092]$GLGSV,2,2,05,78,61,257,34,1*42
[2026-04-03_13:08:03:092]$GAGSV,1,1,00,7*73
[2026-04-03_13:08:03:092]$GBGSV,1,1,01,38,,,36,1*79
[2026-04-03_13:08:03:092]$GNRMC,060804.000,A,2055.283327,N,10551.336396,E,0.11,000.00,030426,,,A,V*04
[2026-04-03_13:08:03:131]$GNVTG,000.00,T,,M,0.11,N,0.21,K,A*20
[2026-04-03_13:08:04:023]$GNGGA,060805.000,2055.283417,N,10551.336329,E,1,14,0.71,4.828,M,-20.560,M,,*57
[2026-04-03_13:08:04:023]$GNGLL,2055.283417,N,10551.336329,E,060805.000,A,A*4B
[2026-04-03_13:08:04:023]$GNGSA,A,3,194,19,17,14,11,21,09,24,22,,,,1.04,0.71,0.76,1*38
[2026-04-03_13:08:04:023]$GNGSA,A,3,88,65,79,66,78,,,,,,,,1.04,0.71,0.76,2*02
[2026-04-03_13:08:04:023]$GNGSA,A,3,,,,,,,,,,,,,1.04,0.71,0.76,3*01
[2026-04-03_13:08:04:053]$GNGSA,A,3,,,,,,,,,,,,,1.04,0.71,0.76,4*06
[2026-04-03_13:08:04:053]$GPGSV,3,1,11,194,54,116,18,06,56,340,,41,54,229,38,19,50,013,29,1*54
[2026-04-03_13:08:04:053]$GPGSV,3,2,11,17,45,058,33,14,42,156,30,11,41,273,30,21,27,199,20,1*68
[2026-04-03_13:08:04:053]$GPGSV,3,3,11,09,14,107,25,24,07,275,30,22,62,158,35,1*55
[2026-04-03_13:08:04:086]$GLGSV,2,1,05,88,35,004,22,65,29,096,23,79,27,321,29,66,17,147,28,1*74
[2026-04-03_13:08:04:086]$GLGSV,2,2,05,78,61,257,33,1*45
[2026-04-03_13:08:04:086]$GAGSV,1,1,00,7*73
[2026-04-03_13:08:04:086]$GBGSV,1,1,01,38,,,37,1*78
[2026-04-03_13:08:04:086]$GNRMC,060805.000,A,2055.283417,N,10551.336329,E,0.10,000.00,030426,,,A,V*04
[2026-04-03_13:08:04:126]$GNVTG,000.00,T,,M,0.10,N,0.19,K,A*2A
[2026-04-03_13:08:05:032]$GNGGA,060806.000,2055.283483,N,10551.336203,E,1,14,0.71,4.646,M,-20.560,M,,*56
[2026-04-03_13:08:05:032]$GNGLL,2055.283483,N,10551.336203,E,060806.000,A,A*4C
[2026-04-03_13:08:05:032]$GNGSA,A,3,194,19,17,14,11,21,09,24,22,,,,1.04,0.71,0.76,1*38
[2026-04-03_13:08:05:032]$GNGSA,A,3,88,65,79,66,78,,,,,,,,1.04,0.71,0.76,2*02
[2026-04-03_13:08:05:032]$GNGSA,A,3,,,,,,,,,,,,,1.04,0.71,0.76,3*01
[2026-04-03_13:08:05:059]$GNGSA,A,3,,,,,,,,,,,,,1.04,0.71,0.76,4*06
[2026-04-03_13:08:05:059]$GPGSV,3,1,11,194,54,116,18,06,56,340,,41,54,229,38,19,50,013,29,1*54
[2026-04-03_13:08:05:059]$GPGSV,3,2,11,17,45,058,33,14,42,156,30,11,41,273,30,21,27,199,19,1*62
[2026-04-03_13:08:05:059]$GPGSV,3,3,11,09,14,107,25,24,07,275,30,22,62,158,36,1*56
[2026-04-03_13:08:05:083]$GLGSV,2,1,05,88,35,004,21,65,29,096,23,79,27,321,29,66,17,147,28,1*77
[2026-04-03_13:08:05:083]$GLGSV,2,2,05,78,61,257,33,1*45
[2026-04-03_13:08:05:083]$GAGSV,1,1,00,7*73
[2026-04-03_13:08:05:083]$GBGSV,1,1,01,38,,,37,1*78
[2026-04-03_13:08:05:083]$GNRMC,060806.000,A,2055.283483,N,10551.336203,E,0.05,000.00,030426,,,A,V*07
[2026-04-03_13:08:05:124]$GNVTG,000.00,T,,M,0.05,N,0.09,K,A*2F
[2026-04-03_13:08:06:021]$GNGGA,060807.000,2055.283585,N,10551.336108,E,1,14,0.71,4.399,M,-20.560,M,,*5F
[2026-04-03_13:08:06:021]$GNGLL,2055.283585,N,10551.336108,E,060807.000,A,A*42
[2026-04-03_13:08:06:021]$GNGSA,A,3,194,19,17,14,11,21,09,24,22,,,,1.04,0.71,0.76,1*38
[2026-04-03_13:08:06:021]$GNGSA,A,3,66,65,79,88,78,,,,,,,,1.04,0.71,0.76,2*02
[2026-04-03_13:08:06:021]$GNGSA,A,3,,,,,,,,,,,,,1.04,0.71,0.76,3*01
[2026-04-03_13:08:06:056]$GNGSA,A,3,,,,,,,,,,,,,1.04,0.71,0.76,4*06
[2026-04-03_13:08:06:056]$GPGSV,3,1,11,194,54,116,19,06,56,340,,41,54,229,38,19,50,013,29,1*55
[2026-04-03_13:08:06:056]$GPGSV,3,2,11,17,45,058,33,14,42,156,31,11,41,273,30,21,27,199,18,1*62
[2026-04-03_13:08:06:056]$GPGSV,3,3,11,09,14,107,26,24,07,275,30,22,62,158,36,1*55
[2026-04-03_13:08:06:079]$GLGSV,2,1,05,66,17,147,28,65,29,096,23,79,27,321,29,88,35,004,21,1*77
[2026-04-03_13:08:06:079]$GLGSV,2,2,05,78,61,257,32,1*44
[2026-04-03_13:08:06:079]$GAGSV,1,1,00,7*73
[2026-04-03_13:08:06:079]$GBGSV,1,1,02,38,,,37,39,,,30,1*72
[2026-04-03_13:08:06:079]$GNRMC,060807.000,A,2055.283585,N,10551.336108,E,0.11,000.00,030426,,,A,V*0C
[2026-04-03_13:08:06:119]$GNVTG,000.00,T,,M,0.11,N,0.20,K,A*21
[2026-04-03_13:08:07:028]$GNGGA,060808.000,2055.283574,N,10551.336035,E,1,14,0.76,4.117,M,-20.560,M,,*52
[2026-04-03_13:08:07:028]$GNGLL,2055.283574,N,10551.336035,E,060808.000,A,A*4C
[2026-04-03_13:08:07:028]$GNGSA,A,3,194,06,19,17,14,11,09,24,22,,,,1.07,0.76,0.75,1*3A
[2026-04-03_13:08:07:028]$GNGSA,A,3,78,65,79,66,88,,,,,,,,1.07,0.76,0.75,2*05
[2026-04-03_13:08:07:028]$GNGSA,A,3,,,,,,,,,,,,,1.07,0.76,0.75,3*06
[2026-04-03_13:08:07:065]$GNGSA,A,3,,,,,,,,,,,,,1.07,0.76,0.75,4*01
[2026-04-03_13:08:07:065]$GPGSV,3,1,11,194,54,116,20,06,56,340,15,41,54,229,38,19,50,013,29,1*5B
[2026-04-03_13:08:07:065]$GPGSV,3,2,11,17,45,058,33,14,42,156,31,11,41,273,30,21,27,199,18,1*62
[2026-04-03_13:08:07:065]$GPGSV,3,3,11,09,14,107,25,24,07,275,30,22,62,158,37,1*57
[2026-04-03_13:08:07:097]$GLGSV,2,1,06,78,61,257,32,65,29,096,23,79,27,321,29,66,17,147,29,1*7D
[2026-04-03_13:08:07:097]$GLGSV,2,2,06,77,,,29,88,35,004,21,1*44
[2026-04-03_13:08:07:097]$GAGSV,1,1,00,7*73
[2026-04-03_13:08:07:097]$GBGSV,1,1,02,39,,,31,38,,,37,1*73
[2026-04-03_13:08:07:097]$GNRMC,060808.000,A,2055.283574,N,10551.336035,E,0.08,000.00,030426,,,A,V*0A
[2026-04-03_13:08:07:132]$GNVTG,000.00,T,,M,0.08,N,0.14,K,A*2E
[2026-04-03_13:08:07:726]$PAIR001,650,0*38
[2026-04-03_13:08:07:726]$PAIR650,0*25
[2026-04-03_13:08:49:177]

[2026-04-03_13:08:49:177]00: 7035 0000

[2026-04-03_13:08:49:177]F1: 0000 0000

[2026-04-03_13:08:49:177]V0: 0000 0000 [0001]

[2026-04-03_13:08:49:177]01: 0000 0000

[2026-04-03_13:08:49:177]U0: 0000 0001 [0000]

[2026-04-03_13:08:49:177]D0: 0000 0001

[2026-04-03_13:08:49:177]T0: 0000 00A6

[2026-04-03_13:08:49:177]Leaving the BROM


[2026-04-03_13:08:49:177][Bootloader] bl_uart_init done
[2026-04-03_13:08:49:177]set CP10 and CP11 Full Access 
[2026-04-03_13:08:49:177][CLK] Dynamic Clock Management: Enable
[2026-04-03_13:08:49:177][CLK] frequency meter
[2026-04-03_13:08:49:312]CM4(CMSYS) freq [216181]KHz
[2026-04-03_13:08:49:312]BUS(FSYS) freq [108025]KHz
[2026-04-03_13:08:49:312]SFC freq [108000]KHz
[2026-04-03_13:08:49:312]SPISLV freq [0]KHz
[2026-04-03_13:08:49:312]I3C freq [108025]KHz
[2026-04-03_13:08:49:312]RTC SRAM freq [108000]KHz
[2026-04-03_13:08:49:312]hal_flash_init
[2026-04-03_13:08:49:312]Flash protect initiation pass! 
[2026-04-03_13:08:49:312]BL Jump to addr 0x8009000 (0)




//---------------------------------------------------- acqui state --------------------------------------------------------//

[2026-04-03_13:08:49:421]$PQTMVER,1,MODULE,LC76GPBNR12A04S,2025/02/13,13:16:28*06
[2026-04-03_13:08:49:604]$PAIR001,124,0*3C
[2026-04-03_13:08:49:604]$PAIR011,001*27
[2026-04-03_13:08:49:604]$PAIR010,1,-1*16
[2026-04-03_13:08:49:604]$PAIR010,2,-1*15
[2026-04-03_13:08:49:658]$GNGGA,235942.013,,,,,0,00,99.99,,M,,M,,*41
[2026-04-03_13:08:49:658]$GNGLL,,,,,235942.013,V,N*6D
[2026-04-03_13:08:49:658]$GNGSA,A,1,,,,,,,,,,,,,99.99,99.99,99.99,1*33
[2026-04-03_13:08:49:658]$GNGSA,A,1,,,,,,,,,,,,,99.99,99.99,99.99,2*30
[2026-04-03_13:08:49:658]$GNGSA,A,1,,,,,,,,,,,,,99.99,99.99,99.99,3*31
[2026-04-03_13:08:49:658]$GNGSA,A,1,,,,,,,,,,,,,99.99,99.99,99.99,4*36
[2026-04-03_13:08:49:727]$GPGSV,1,1,00,1*64
[2026-04-03_13:08:49:727]$GLGSV,1,1,00,1*78
[2026-04-03_13:08:49:727]$GAGSV,1,1,00,7*73
[2026-04-03_13:08:49:727]$GBGSV,1,1,00,1*76
[2026-04-03_13:08:49:727]$GNRMC,235942.013,V,,,,,,,050180,,,N,V*2C
[2026-04-03_13:08:49:727]$GNVTG,,T,,M,,N,,K,N*32
[2026-04-03_13:08:50:624]$GNGGA,235943.012,,,,,0,00,99.99,,M,,M,,*41
[2026-04-03_13:08:50:624]$GNGLL,,,,,235943.012,V,N*6D
[2026-04-03_13:08:50:624]$GNGSA,A,1,,,,,,,,,,,,,99.99,99.99,99.99,1*33
[2026-04-03_13:08:50:624]$GNGSA,A,1,,,,,,,,,,,,,99.99,99.99,99.99,2*30
[2026-04-03_13:08:50:624]$GNGSA,A,1,,,,,,,,,,,,,99.99,99.99,99.99,3*31
[2026-04-03_13:08:50:624]$GNGSA,A,1,,,,,,,,,,,,,99.99,99.99,99.99,4*36
[2026-04-03_13:08:50:701]$GPGSV,1,1,00,1*64
[2026-04-03_13:08:50:701]$GLGSV,1,1,00,1*78
[2026-04-03_13:08:50:701]$GAGSV,1,1,00,7*73
[2026-04-03_13:08:50:701]$GBGSV,1,1,00,1*76
[2026-04-03_13:08:50:701]$GNRMC,235943.012,V,,,,,,,050180,,,N,V*2C
[2026-04-03_13:08:50:701]$GNVTG,,T,,M,,N,,K,N*32
[2026-04-03_13:08:51:621]$GNGGA,235944.012,,,,,0,00,99.99,,M,,M,,*46
[2026-04-03_13:08:51:621]$GNGLL,,,,,235944.012,V,N*6A
[2026-04-03_13:08:51:621]$GNGSA,A,1,,,,,,,,,,,,,99.99,99.99,99.99,1*33
[2026-04-03_13:08:51:621]$GNGSA,A,1,,,,,,,,,,,,,99.99,99.99,99.99,2*30
[2026-04-03_13:08:51:621]$GNGSA,A,1,,,,,,,,,,,,,99.99,99.99,99.99,3*31
[2026-04-03_13:08:51:621]$GNGSA,A,1,,,,,,,,,,,,,99.99,99.99,99.99,4*36
[2026-04-03_13:08:51:692]$GPGSV,1,1,00,1*64
[2026-04-03_13:08:51:692]$GLGSV,1,1,00,1*78
[2026-04-03_13:08:51:692]$GAGSV,1,1,00,7*73
[2026-04-03_13:08:51:692]$GBGSV,1,1,00,1*76
[2026-04-03_13:08:51:692]$GNRMC,235944.012,V,,,,,,,050180,,,N,V*2B
[2026-04-03_13:08:51:692]$GNVTG,,T,,M,,N,,K,N*32
[2026-04-03_13:08:52:621]$GNGGA,235945.012,,,,,0,00,99.99,,M,,M,,*47
[2026-04-03_13:08:52:621]$GNGLL,,,,,235945.012,V,N*6B
[2026-04-03_13:08:52:621]$GNGSA,A,1,,,,,,,,,,,,,99.99,99.99,99.99,1*33
[2026-04-03_13:08:52:621]$GNGSA,A,1,,,,,,,,,,,,,99.99,99.99,99.99,2*30
[2026-04-03_13:08:52:621]$GNGSA,A,1,,,,,,,,,,,,,99.99,99.99,99.99,3*31
[2026-04-03_13:08:52:621]$GNGSA,A,1,,,,,,,,,,,,,99.99,99.99,99.99,4*36
[2026-04-03_13:08:52:669]$GPGSV,1,1,01,17,,,31,1*61
[2026-04-03_13:08:52:669]$GLGSV,1,1,00,1*78
[2026-04-03_13:08:52:669]$GAGSV,1,1,00,7*73
[2026-04-03_13:08:52:669]$GBGSV,1,1,00,1*76
[2026-04-03_13:08:52:669]$GNRMC,235945.012,V,,,,,,,050180,,,N,V*2A
[2026-04-03_13:08:52:669]$GNVTG,,T,,M,,N,,K,N*32
[2026-04-03_13:08:53:618]$GNGGA,235946.011,,,,,0,00,99.99,,M,,M,,*47
[2026-04-03_13:08:53:618]$GNGLL,,,,,235946.011,V,N*6B
[2026-04-03_13:08:53:618]$GNGSA,A,1,,,,,,,,,,,,,99.99,99.99,99.99,1*33
[2026-04-03_13:08:53:618]$GNGSA,A,1,,,,,,,,,,,,,99.99,99.99,99.99,2*30
[2026-04-03_13:08:53:618]$GNGSA,A,1,,,,,,,,,,,,,99.99,99.99,99.99,3*31
[2026-04-03_13:08:53:618]$GNGSA,A,1,,,,,,,,,,,,,99.99,99.99,99.99,4*36
[2026-04-03_13:08:53:673]$GPGSV,1,1,01,17,,,33,1*63
[2026-04-03_13:08:53:673]$GLGSV,1,1,00,1*78
[2026-04-03_13:08:53:673]$GAGSV,1,1,00,7*73
[2026-04-03_13:08:53:673]$GBGSV,1,1,00,1*76
[2026-04-03_13:08:53:673]$GNRMC,235946.011,V,,,,,,,050180,,,N,V*2A
[2026-04-03_13:08:53:673]$GNVTG,,T,,M,,N,,K,N*32
[2026-04-03_13:08:54:621]$GNGGA,235947.012,,,,,0,00,99.99,,M,,M,,*45
[2026-04-03_13:08:54:621]$GNGLL,,,,,235947.012,V,N*69
[2026-04-03_13:08:54:621]$GNGSA,A,1,,,,,,,,,,,,,99.99,99.99,99.99,1*33
[2026-04-03_13:08:54:621]$GNGSA,A,1,,,,,,,,,,,,,99.99,99.99,99.99,2*30
[2026-04-03_13:08:54:621]$GNGSA,A,1,,,,,,,,,,,,,99.99,99.99,99.99,3*31
[2026-04-03_13:08:54:621]$GNGSA,A,1,,,,,,,,,,,,,99.99,99.99,99.99,4*36
[2026-04-03_13:08:54:661]$GPGSV,1,1,01,17,,,33,1*63
[2026-04-03_13:08:54:661]$GLGSV,1,1,00,1*78
[2026-04-03_13:08:54:661]$GAGSV,1,1,00,7*73
[2026-04-03_13:08:54:661]$GBGSV,1,1,00,1*76
[2026-04-03_13:08:54:661]$GNRMC,235947.012,V,,,,,,,050180,,,N,V*28
[2026-04-03_13:08:54:661]$GNVTG,,T,,M,,N,,K,N*32
[2026-04-03_13:08:55:622]$GNGGA,235948.012,,,,,0,00,99.99,,M,,M,,*4A
[2026-04-03_13:08:55:622]$GNGLL,,,,,235948.012,V,N*66
[2026-04-03_13:08:55:622]$GNGSA,A,1,,,,,,,,,,,,,99.99,99.99,99.99,1*33
[2026-04-03_13:08:55:622]$GNGSA,A,1,,,,,,,,,,,,,99.99,99.99,99.99,2*30
[2026-04-03_13:08:55:622]$GNGSA,A,1,,,,,,,,,,,,,99.99,99.99,99.99,3*31
[2026-04-03_13:08:55:622]$GNGSA,A,1,,,,,,,,,,,,,99.99,99.99,99.99,4*36
[2026-04-03_13:08:55:667]$GPGSV,1,1,01,17,,,32,1*62
[2026-04-03_13:08:55:667]$GLGSV,1,1,00,1*78
[2026-04-03_13:08:55:667]$GAGSV,1,1,00,7*73
[2026-04-03_13:08:55:667]$GBGSV,1,1,00,1*76
[2026-04-03_13:08:55:667]$GNRMC,235948.012,V,,,,,,,050180,,,N,V*27
[2026-04-03_13:08:55:667]$GNVTG,,T,,M,,N,,K,N*32
[2026-04-03_13:08:56:619]$GNGGA,235949.012,,,,,0,00,99.99,,M,,M,,*4B
[2026-04-03_13:08:56:619]$GNGLL,,,,,235949.012,V,N*67
[2026-04-03_13:08:56:619]$GNGSA,A,1,,,,,,,,,,,,,99.99,99.99,99.99,1*33
[2026-04-03_13:08:56:619]$GNGSA,A,1,,,,,,,,,,,,,99.99,99.99,99.99,2*30
[2026-04-03_13:08:56:619]$GNGSA,A,1,,,,,,,,,,,,,99.99,99.99,99.99,3*31
[2026-04-03_13:08:56:619]$GNGSA,A,1,,,,,,,,,,,,,99.99,99.99,99.99,4*36
[2026-04-03_13:08:56:664]$GPGSV,1,1,01,17,,,33,1*63
[2026-04-03_13:08:56:664]$GLGSV,1,1,00,1*78
[2026-04-03_13:08:56:664]$GAGSV,1,1,00,7*73
[2026-04-03_13:08:56:664]$GBGSV,1,1,00,1*76
[2026-04-03_13:08:56:664]$GNRMC,235949.012,V,,,,,,,050180,,,N,V*26
[2026-04-03_13:08:56:664]$GNVTG,,T,,M,,N,,K,N*32
[2026-04-03_13:08:57:623]$GNGGA,235950.012,,,,,0,00,99.99,,M,,M,,*43
[2026-04-03_13:08:57:623]$GNGLL,,,,,235950.012,V,N*6F
[2026-04-03_13:08:57:623]$GNGSA,A,1,,,,,,,,,,,,,99.99,99.99,99.99,1*33
[2026-04-03_13:08:57:623]$GNGSA,A,1,,,,,,,,,,,,,99.99,99.99,99.99,2*30
[2026-04-03_13:08:57:623]$GNGSA,A,1,,,,,,,,,,,,,99.99,99.99,99.99,3*31
[2026-04-03_13:08:57:623]$GNGSA,A,1,,,,,,,,,,,,,99.99,99.99,99.99,4*36
[2026-04-03_13:08:57:665]$GPGSV,1,1,02,17,,,32,14,,,25,1*63
[2026-04-03_13:08:57:665]$GLGSV,1,1,00,1*78
[2026-04-03_13:08:57:665]$GAGSV,1,1,00,7*73
[2026-04-03_13:08:57:665]$GBGSV,1,1,00,1*76
[2026-04-03_13:08:57:665]$GNRMC,235950.012,V,,,,,,,050180,,,N,V*2E
[2026-04-03_13:08:57:665]$GNVTG,,T,,M,,N,,K,N*32
[2026-04-03_13:08:58:620]$GNGGA,235951.012,,,,,0,00,99.99,,M,,M,,*42
[2026-04-03_13:08:58:620]$GNGLL,,,,,235951.012,V,N*6E
[2026-04-03_13:08:58:620]$GNGSA,A,1,,,,,,,,,,,,,99.99,99.99,99.99,1*33
[2026-04-03_13:08:58:620]$GNGSA,A,1,,,,,,,,,,,,,99.99,99.99,99.99,2*30
[2026-04-03_13:08:58:620]$GNGSA,A,1,,,,,,,,,,,,,99.99,99.99,99.99,3*31
[2026-04-03_13:08:58:620]$GNGSA,A,1,,,,,,,,,,,,,99.99,99.99,99.99,4*36
[2026-04-03_13:08:58:699]$GPGSV,1,1,02,17,,,33,14,,,30,1*66
[2026-04-03_13:08:58:699]$GLGSV,1,1,00,1*78
[2026-04-03_13:08:58:699]$GAGSV,1,1,00,7*73
[2026-04-03_13:08:58:699]$GBGSV,1,1,00,1*76
[2026-04-03_13:08:58:699]$GNRMC,235951.012,V,,,,,,,050180,,,N,V*2F
[2026-04-03_13:08:58:699]$GNVTG,,T,,M,,N,,K,N*32
[2026-04-03_13:08:59:042]$GNGGA,235951.432,,,,,0,00,99.99,,M,,M,,*44
[2026-04-03_13:08:59:042]$GNGLL,,,,,235951.432,V,N*68
[2026-04-03_13:08:59:042]$GNGSA,A,1,,,,,,,,,,,,,99.99,99.99,99.99,1*33
[2026-04-03_13:08:59:042]$GNGSA,A,1,,,,,,,,,,,,,99.99,99.99,99.99,2*30
[2026-04-03_13:08:59:042]$GNGSA,A,1,,,,,,,,,,,,,99.99,99.99,99.99,3*31
[2026-04-03_13:08:59:042]$GNGSA,A,1,,,,,,,,,,,,,99.99,99.99,99.99,4*36
[2026-04-03_13:08:59:091]$GPGSV,1,1,02,17,,,31,14,,,28,1*6D
[2026-04-03_13:08:59:091]$GLGSV,1,1,00,1*78
[2026-04-03_13:08:59:091]$GAGSV,1,1,00,7*73
[2026-04-03_13:08:59:091]$GBGSV,1,1,00,1*76
[2026-04-03_13:08:59:091]$GNRMC,235951.432,V,,,,,,,050180,,,N,V*29
[2026-04-03_13:08:59:091]$GNVTG,,T,,M,,N,,K,N*32
[2026-04-03_13:09:00:041]$GNGGA,235952.432,,,,,0,00,99.99,,M,,M,,*47
[2026-04-03_13:09:00:041]$GNGLL,,,,,235952.432,V,N*6B
[2026-04-03_13:09:00:041]$GNGSA,A,1,,,,,,,,,,,,,99.99,99.99,99.99,1*33
[2026-04-03_13:09:00:041]$GNGSA,A,1,,,,,,,,,,,,,99.99,99.99,99.99,2*30
[2026-04-03_13:09:00:041]$GNGSA,A,1,,,,,,,,,,,,,99.99,99.99,99.99,3*31
[2026-04-03_13:09:00:041]$GNGSA,A,1,,,,,,,,,,,,,99.99,99.99,99.99,4*36
[2026-04-03_13:09:00:091]$GPGSV,1,1,02,17,,,32,14,,,33,1*64
[2026-04-03_13:09:00:091]$GLGSV,1,1,00,1*78
[2026-04-03_13:09:00:091]$GAGSV,1,1,00,7*73
[2026-04-03_13:09:00:091]$GBGSV,1,1,00,1*76
[2026-04-03_13:09:00:091]$GNRMC,235952.432,V,,,,,,,050180,,,N,V*2A
[2026-04-03_13:09:00:091]$GNVTG,,T,,M,,N,,K,N*32
[2026-04-03_13:09:01:043]$GNGGA,060902.086,,,,,0,00,99.99,,M,,M,,*4B
[2026-04-03_13:09:01:043]$GNGLL,,,,,060902.086,V,N*67
[2026-04-03_13:09:01:043]$GNGSA,A,1,,,,,,,,,,,,,99.99,99.99,99.99,1*33
[2026-04-03_13:09:01:043]$GNGSA,A,1,,,,,,,,,,,,,99.99,99.99,99.99,2*30
[2026-04-03_13:09:01:043]$GNGSA,A,1,,,,,,,,,,,,,99.99,99.99,99.99,3*31
[2026-04-03_13:09:01:043]$GNGSA,A,1,,,,,,,,,,,,,99.99,99.99,99.99,4*36
[2026-04-03_13:09:01:083]$GPGSV,1,1,03,17,,,32,14,,,34,11,,,29,1*69
[2026-04-03_13:09:01:083]$GLGSV,1,1,00,1*78
[2026-04-03_13:09:01:083]$GAGSV,1,1,00,7*73
[2026-04-03_13:09:01:083]$GBGSV,1,1,00,1*76
[2026-04-03_13:09:01:083]$GNRMC,060902.086,V,,,,,,,110180,,,N,V*23
[2026-04-03_13:09:01:083]$GNVTG,,T,,M,,N,,K,N*32
[2026-04-03_13:09:02:040]$GNGGA,060903.086,,,,,0,00,99.99,,M,,M,,*4A
[2026-04-03_13:09:02:040]$GNGLL,,,,,060903.086,V,N*66
[2026-04-03_13:09:02:040]$GNGSA,A,1,,,,,,,,,,,,,99.99,99.99,99.99,1*33
[2026-04-03_13:09:02:040]$GNGSA,A,1,,,,,,,,,,,,,99.99,99.99,99.99,2*30
[2026-04-03_13:09:02:040]$GNGSA,A,1,,,,,,,,,,,,,99.99,99.99,99.99,3*31
[2026-04-03_13:09:02:040]$GNGSA,A,1,,,,,,,,,,,,,99.99,99.99,99.99,4*36
[2026-04-03_13:09:02:089]$GPGSV,1,1,04,17,,,33,14,,,33,11,,,30,22,,,29,1*6B
[2026-04-03_13:09:02:089]$GLGSV,1,1,00,1*78
[2026-04-03_13:09:02:089]$GAGSV,1,1,00,7*73
[2026-04-03_13:09:02:089]$GBGSV,1,1,00,1*76
[2026-04-03_13:09:02:089]$GNRMC,060903.086,V,,,,,,,110180,,,N,V*22
[2026-04-03_13:09:02:089]$GNVTG,,T,,M,,N,,K,N*32
[2026-04-03_13:09:03:043]$GNGGA,060904.086,,,,,0,00,99.99,,M,,M,,*4D
[2026-04-03_13:09:03:043]$GNGLL,,,,,060904.086,V,N*61
[2026-04-03_13:09:03:043]$GNGSA,A,1,,,,,,,,,,,,,99.99,99.99,99.99,1*33
[2026-04-03_13:09:03:043]$GNGSA,A,1,,,,,,,,,,,,,99.99,99.99,99.99,2*30
[2026-04-03_13:09:03:043]$GNGSA,A,1,,,,,,,,,,,,,99.99,99.99,99.99,3*31
[2026-04-03_13:09:03:043]$GNGSA,A,1,,,,,,,,,,,,,99.99,99.99,99.99,4*36
[2026-04-03_13:09:03:101]$GPGSV,2,1,05,17,,,33,14,,,34,11,,,31,22,,,34,1*63
[2026-04-03_13:09:03:101]$GPGSV,2,2,05,19,,,29,1*62
[2026-04-03_13:09:03:101]$GLGSV,1,1,00,1*78
[2026-04-03_13:09:03:101]$GAGSV,1,1,00,7*73
[2026-04-03_13:09:03:101]$GBGSV,1,1,00,1*76
[2026-04-03_13:09:03:101]$GNRMC,060904.086,V,,,,,,,110180,,,N,V*25
[2026-04-03_13:09:03:101]$GNVTG,,T,,M,,N,,K,N*32
[2026-04-03_13:09:04:039]$GNGGA,060905.086,,,,,0,00,99.99,,M,,M,,*4C
[2026-04-03_13:09:04:039]$GNGLL,,,,,060905.086,V,N*60
[2026-04-03_13:09:04:039]$GNGSA,A,1,,,,,,,,,,,,,99.99,99.99,99.99,1*33
[2026-04-03_13:09:04:039]$GNGSA,A,1,,,,,,,,,,,,,99.99,99.99,99.99,2*30
[2026-04-03_13:09:04:039]$GNGSA,A,1,,,,,,,,,,,,,99.99,99.99,99.99,3*31
[2026-04-03_13:09:04:039]$GNGSA,A,1,,,,,,,,,,,,,99.99,99.99,99.99,4*36
[2026-04-03_13:09:04:153]$GPGSV,2,1,05,17,,,33,14,,,34,11,,,31,22,,,34,1*63
[2026-04-03_13:09:04:153]$GPGSV,2,2,05,19,,,31,1*6B
[2026-04-03_13:09:04:153]$GLGSV,1,1,00,1*78
[2026-04-03_13:09:04:153]$GAGSV,1,1,00,7*73
[2026-04-03_13:09:04:153]$GBGSV,1,1,00,1*76
[2026-04-03_13:09:04:153]$GNRMC,060905.086,V,,,,,,,110180,,,N,V*24
[2026-04-03_13:09:04:153]$GNVTG,,T,,M,,N,,K,N*32
[2026-04-03_13:09:05:044]$GNGGA,060906.086,,,,,0,00,99.99,,M,,M,,*4F
[2026-04-03_13:09:05:044]$GNGLL,,,,,060906.086,V,N*63
[2026-04-03_13:09:05:044]$GNGSA,A,1,,,,,,,,,,,,,99.99,99.99,99.99,1*33
[2026-04-03_13:09:05:044]$GNGSA,A,1,,,,,,,,,,,,,99.99,99.99,99.99,2*30
[2026-04-03_13:09:05:044]$GNGSA,A,1,,,,,,,,,,,,,99.99,99.99,99.99,3*31
[2026-04-03_13:09:05:044]$GNGSA,A,1,,,,,,,,,,,,,99.99,99.99,99.99,4*36
[2026-04-03_13:09:05:154]$GPGSV,2,1,05,17,,,33,14,,,34,11,,,30,22,,,34,1*62
[2026-04-03_13:09:05:154]$GPGSV,2,2,05,19,,,30,1*6A
[2026-04-03_13:09:05:154]$GLGSV,1,1,00,1*78
[2026-04-03_13:09:05:154]$GAGSV,1,1,00,7*73
[2026-04-03_13:09:05:154]$GBGSV,1,1,00,1*76
[2026-04-03_13:09:05:154]$GNRMC,060906.086,V,,,,,,,110180,,,N,V*27
[2026-04-03_13:09:05:154]$GNVTG,,T,,M,,N,,K,N*32
[2026-04-03_13:09:06:038]$GNGGA,060907.086,,,,,0,00,99.99,,M,,M,,*4E
[2026-04-03_13:09:06:038]$GNGLL,,,,,060907.086,V,N*62
[2026-04-03_13:09:06:038]$GNGSA,A,1,,,,,,,,,,,,,99.99,99.99,99.99,1*33
[2026-04-03_13:09:06:038]$GNGSA,A,1,,,,,,,,,,,,,99.99,99.99,99.99,2*30
[2026-04-03_13:09:06:038]$GNGSA,A,1,,,,,,,,,,,,,99.99,99.99,99.99,3*31
[2026-04-03_13:09:06:038]$GNGSA,A,1,,,,,,,,,,,,,99.99,99.99,99.99,4*36
[2026-04-03_13:09:06:095]$GPGSV,2,1,05,17,,,33,14,,,33,11,,,32,22,,,33,1*60
[2026-04-03_13:09:06:095]$GPGSV,2,2,05,19,,,31,1*6B
[2026-04-03_13:09:06:095]$GLGSV,1,1,00,1*78
[2026-04-03_13:09:06:095]$GAGSV,1,1,00,7*73
[2026-04-03_13:09:06:095]$GBGSV,1,1,00,1*76
[2026-04-03_13:09:06:095]$GNRMC,060907.086,V,,,,,,,110180,,,N,V*26
[2026-04-03_13:09:06:095]$GNVTG,,T,,M,,N,,K,N*32
[2026-04-03_13:09:07:040]$GNGGA,060908.086,,,,,0,00,99.99,,M,,M,,*41
[2026-04-03_13:09:07:040]$GNGLL,,,,,060908.086,V,N*6D
[2026-04-03_13:09:07:040]$GNGSA,A,1,,,,,,,,,,,,,99.99,99.99,99.99,1*33
[2026-04-03_13:09:07:040]$GNGSA,A,1,,,,,,,,,,,,,99.99,99.99,99.99,2*30
[2026-04-03_13:09:07:040]$GNGSA,A,1,,,,,,,,,,,,,99.99,99.99,99.99,3*31
[2026-04-03_13:09:07:040]$GNGSA,A,1,,,,,,,,,,,,,99.99,99.99,99.99,4*36
[2026-04-03_13:09:07:199]$GPGSV,2,1,05,17,,,33,14,,,33,11,,,32,22,,,31,1*62
[2026-04-03_13:09:07:199]$GPGSV,2,2,05,19,,,29,1*62
[2026-04-03_13:09:07:199]$GLGSV,1,1,02,79,,,30,66,,,31,1*75
[2026-04-03_13:09:07:199]$GAGSV,1,1,00,7*73
[2026-04-03_13:09:07:199]$GBGSV,1,1,00,1*76
[2026-04-03_13:09:07:199]$GNRMC,060908.086,V,,,,,,,110180,,,N,V*29
[2026-04-03_13:09:07:199]$GNVTG,,T,,M,,N,,K,N*32
[2026-04-03_13:09:08:043]$GNGGA,060909.086,,,,,0,00,99.99,,M,,M,,*40
[2026-04-03_13:09:08:043]$GNGLL,,,,,060909.086,V,N*6C
[2026-04-03_13:09:08:043]$GNGSA,A,1,,,,,,,,,,,,,99.99,99.99,99.99,1*33
[2026-04-03_13:09:08:043]$GNGSA,A,1,,,,,,,,,,,,,99.99,99.99,99.99,2*30
[2026-04-03_13:09:08:043]$GNGSA,A,1,,,,,,,,,,,,,99.99,99.99,99.99,3*31
[2026-04-03_13:09:08:043]$GNGSA,A,1,,,,,,,,,,,,,99.99,99.99,99.99,4*36
[2026-04-03_13:09:08:163]$GPGSV,2,1,05,17,,,33,14,,,33,11,,,32,22,,,32,1*61
[2026-04-03_13:09:08:163]$GPGSV,2,2,05,19,,,30,1*6A
[2026-04-03_13:09:08:163]$GLGSV,1,1,02,79,,,30,66,,,31,1*75
[2026-04-03_13:09:08:163]$GAGSV,1,1,00,7*73
[2026-04-03_13:09:08:163]$GBGSV,1,1,00,1*76
[2026-04-03_13:09:08:163]$GNRMC,060909.086,V,,,,,,,110180,,,N,V*28
[2026-04-03_13:09:08:163]$GNVTG,,T,,M,,N,,K,N*32
[2026-04-03_13:09:09:014]$PAIR010,0,0,2412,454167*3B
[2026-04-03_13:09:09:014]$PAIR010,0,1,2412,454167*3A
[2026-04-03_13:09:09:014]$PAIR010,0,3,2412,454167*38
[2026-04-03_13:09:09:014]$PAIR010,0,2,2412,454167*39
[2026-04-03_13:09:09:095]$GNGGA,060910.084,,,,,0,00,99.99,,M,,M,,*4A
[2026-04-03_13:09:09:095]$GNGLL,,,,,060910.084,V,N*66
[2026-04-03_13:09:09:095]$GNGSA,A,1,,,,,,,,,,,,,99.99,99.99,99.99,1*33
[2026-04-03_13:09:09:095]$GNGSA,A,1,,,,,,,,,,,,,99.99,99.99,99.99,2*30
[2026-04-03_13:09:09:095]$GNGSA,A,1,,,,,,,,,,,,,99.99,99.99,99.99,3*31
[2026-04-03_13:09:09:095]$GNGSA,A,1,,,,,,,,,,,,,99.99,99.99,99.99,4*36
[2026-04-03_13:09:09:136]$GPGSV,2,1,06,22,62,158,31,19,51,014,30,17,45,059,33,14,42,157,33,1*6A
[2026-04-03_13:09:09:136]$GPGSV,2,2,06,11,41,274,32,24,07,275,31,1*64
[2026-04-03_13:09:09:136]$GLGSV,1,1,02,79,27,320,30,66,18,147,31,1*7A
[2026-04-03_13:09:09:136]$GAGSV,1,1,00,7*73
[2026-04-03_13:09:09:136]$GBGSV,1,1,00,1*76
[2026-04-03_13:09:09:136]$GNRMC,060910.084,V,,,,,,,030426,,,N,V*28
[2026-04-03_13:09:09:136]$GNVTG,,T,,M,,N,,K,N*32


//------------------------------------------------------- tracking state ------------------------------------------------------//

[2026-04-03_13:09:10:103]$GNGGA,060911.084,2055.284648,N,10551.333875,E,1,09,0.96,7.435,M,-20.560,M,,*51
[2026-04-03_13:09:10:103]$GNGLL,2055.284648,N,10551.333875,E,060911.084,A,A*4B
[2026-04-03_13:09:10:103]$GNGSA,A,3,22,19,17,14,11,24,,,,,,,1.27,0.96,0.83,1*0C
[2026-04-03_13:09:10:103]$GNGSA,A,3,78,79,66,,,,,,,,,,1.27,0.96,0.83,2*03
[2026-04-03_13:09:10:103]$GNGSA,A,3,,,,,,,,,,,,,1.27,0.96,0.83,3*03
[2026-04-03_13:09:10:135]$GNGSA,A,3,,,,,,,,,,,,,1.27,0.96,0.83,4*04
[2026-04-03_13:09:10:135]$GPGSV,2,1,06,22,62,158,31,19,51,014,30,17,45,059,33,14,42,157,33,1*6A
[2026-04-03_13:09:10:135]$GPGSV,2,2,06,11,41,274,32,24,07,275,32,1*67
[2026-04-03_13:09:10:135]$GLGSV,2,1,05,78,61,255,27,88,34,005,,65,30,095,21,79,27,320,30,1*75
[2026-04-03_13:09:10:185]$GLGSV,2,2,05,66,18,147,31,1*44
[2026-04-03_13:09:10:185]$GAGSV,1,1,00,7*73
[2026-04-03_13:09:10:185]$GBGSV,1,1,00,1*76
[2026-04-03_13:09:10:185]$GNRMC,060911.084,A,2055.284648,N,10551.333875,E,0.17,000.00,030426,,,A,V*03
[2026-04-03_13:09:10:185]$GNVTG,000.00,T,,M,0.17,N,0.32,K,A*24
[2026-04-03_13:09:11:922]$PAIR010,0,2,2412,454169*37
[2026-04-03_13:09:12:022]$GNGGA,060913.000,2055.283525,N,10551.332562,E,1,12,0.78,10.643,M,-20.560,M,,*65
[2026-04-03_13:09:12:022]$GNGLL,2055.283525,N,10551.332562,E,060913.000,A,A*40
[2026-04-03_13:09:12:022]$GNGSA,A,3,22,19,17,14,11,09,24,,,,,,1.10,0.78,0.78,1*05
[2026-04-03_13:09:12:022]$GNGSA,A,3,78,88,65,79,66,,,,,,,,1.10,0.78,0.78,2*00
[2026-04-03_13:09:12:022]$GNGSA,A,3,,,,,,,,,,,,,1.10,0.78,0.78,3*03
[2026-04-03_13:09:12:047]$GNGSA,A,3,,,,,,,,,,,,,1.10,0.78,0.78,4*04
[2026-04-03_13:09:12:047]$GPGSV,3,1,09,22,62,158,31,06,55,341,,19,51,014,30,17,45,059,33,1*64
[2026-04-03_13:09:12:047]$GPGSV,3,2,09,14,42,157,33,11,41,274,32,21,28,199,,09,14,107,21,1*68
[2026-04-03_13:09:12:047]$GPGSV,3,3,09,24,07,275,31,1*5E
[2026-04-03_13:09:12:047]$GLGSV,2,1,05,78,61,255,25,88,34,005,28,65,30,095,26,79,27,320,30,1*7A
[2026-04-03_13:09:12:099]$GLGSV,2,2,05,66,18,147,31,1*44
[2026-04-03_13:09:12:099]$GAGSV,1,1,00,7*73
[2026-04-03_13:09:12:099]$GBGSV,1,1,00,1*76
[2026-04-03_13:09:12:099]$GNRMC,060913.000,A,2055.283525,N,10551.332562,E,0.23,000.00,030426,,,A,V*0F
[2026-04-03_13:09:12:099]$GNVTG,000.00,T,,M,0.23,N,0.42,K,A*24
[2026-04-03_13:09:13:035]$GNGGA,060914.000,2055.283015,N,10551.332459,E,1,14,0.70,8.992,M,-20.560,M,,*59
[2026-04-03_13:09:13:035]$GNGLL,2055.283015,N,10551.332459,E,060914.000,A,A*48
[2026-04-03_13:09:13:035]$GNGSA,A,3,22,06,19,17,14,11,21,09,24,,,,1.04,0.70,0.77,1*02
[2026-04-03_13:09:13:035]$GNGSA,A,3,78,88,65,79,66,,,,,,,,1.04,0.70,0.77,2*02
[2026-04-03_13:09:13:035]$GNGSA,A,3,,,,,,,,,,,,,1.04,0.70,0.77,3*01
[2026-04-03_13:09:13:196]$GNGSA,A,3,,,,,,,,,,,,,1.04,0.70,0.77,4*06
[2026-04-03_13:09:13:196]$GPGSV,3,1,09,22,62,158,31,06,55,341,18,19,51,014,30,17,45,059,33,1*6D
[2026-04-03_13:09:13:196]$GPGSV,3,2,09,14,42,157,34,11,41,274,32,21,28,199,20,09,14,107,19,1*66
[2026-04-03_13:09:13:196]$GPGSV,3,3,09,24,07,275,33,1*5C
[2026-04-03_13:09:13:279]$GLGSV,2,1,05,78,61,255,28,88,34,005,29,65,30,095,28,79,27,320,30,1*78
[2026-04-03_13:09:13:279]$GLGSV,2,2,05,66,18,147,31,1*44
[2026-04-03_13:09:13:279]$GAGSV,1,1,00,7*73
[2026-04-03_13:09:13:279]$GBGSV,1,1,00,1*76
[2026-04-03_13:09:13:279]$GNRMC,060914.000,A,2055.283015,N,10551.332459,E,0.11,000.00,030426,,,A,V*06
[2026-04-03_13:09:13:279]$GNVTG,000.00,T,,M,0.11,N,0.21,K,A*20
[2026-04-03_13:09:14:015]$GNGGA,060915.000,2055.282625,N,10551.332567,E,1,14,0.70,9.500,M,-20.560,M,,*56
[2026-04-03_13:09:14:015]$GNGLL,2055.282625,N,10551.332567,E,060915.000,A,A*41
[2026-04-03_13:09:14:015]$GNGSA,A,3,22,06,19,17,14,11,21,09,24,,,,1.04,0.70,0.77,1*02
[2026-04-03_13:09:14:015]$GNGSA,A,3,78,88,65,79,66,,,,,,,,1.04,0.70,0.77,2*02
[2026-04-03_13:09:14:015]$GNGSA,A,3,,,,,,,,,,,,,1.04,0.70,0.77,3*01
[2026-04-03_13:09:14:108]$GNGSA,A,3,,,,,,,,,,,,,1.04,0.70,0.77,4*06
[2026-04-03_13:09:14:108]$GPGSV,3,1,10,22,62,158,31,06,55,341,19,41,54,229,,19,51,014,30,1*62
[2026-04-03_13:09:14:108]$GPGSV,3,2,10,17,45,059,33,14,42,157,33,11,41,274,32,21,28,199,18,1*6B
[2026-04-03_13:09:14:108]$GPGSV,3,3,10,09,14,107,23,24,07,275,32,1*6E
[2026-04-03_13:09:14:215]$GLGSV,2,1,05,78,61,255,25,88,34,005,27,65,30,095,27,79,27,320,29,1*7C
[2026-04-03_13:09:14:215]$GLGSV,2,2,05,66,18,147,31,1*44
[2026-04-03_13:09:14:215]$GAGSV,1,1,00,7*73
[2026-04-03_13:09:14:215]$GBGSV,1,1,00,1*76
[2026-04-03_13:09:14:215]$GNRMC,060915.000,A,2055.282625,N,10551.332567,E,0.03,000.00,030426,,,A,V*0C
[2026-04-03_13:09:14:215]$GNVTG,000.00,T,,M,0.03,N,0.05,K,A*25
[2026-04-03_13:09:15:021]$GNGGA,060916.000,2055.282511,N,10551.332807,E,1,14,0.70,8.376,M,-20.560,M,,*5C
[2026-04-03_13:09:15:021]$GNGLL,2055.282511,N,10551.332807,E,060916.000,A,A*4D
[2026-04-03_13:09:15:021]$GNGSA,A,3,22,06,19,17,14,11,21,09,24,,,,1.04,0.70,0.77,1*02
[2026-04-03_13:09:15:021]$GNGSA,A,3,78,88,65,79,66,,,,,,,,1.04,0.70,0.77,2*02
[2026-04-03_13:09:15:021]$GNGSA,A,3,,,,,,,,,,,,,1.04,0.70,0.77,3*01
[2026-04-03_13:09:15:124]$GNGSA,A,3,,,,,,,,,,,,,1.04,0.70,0.77,4*06
[2026-04-03_13:09:15:124]$GPGSV,3,1,10,22,62,158,31,06,55,341,21,41,54,229,,19,51,014,30,1*69
[2026-04-03_13:09:15:124]$GPGSV,3,2,10,17,45,059,33,14,42,157,33,11,41,274,33,21,28,199,22,1*63
[2026-04-03_13:09:15:124]$GPGSV,3,3,10,09,14,107,22,24,07,275,32,1*6F
[2026-04-03_13:09:15:225]$GLGSV,2,1,05,78,61,255,25,88,34,005,29,65,30,095,28,79,27,320,29,1*7D
[2026-04-03_13:09:15:225]$GLGSV,2,2,05,66,18,147,31,1*44
[2026-04-03_13:09:15:225]$GAGSV,1,1,00,7*73
[2026-04-03_13:09:15:225]$GBGSV,1,1,00,1*76
[2026-04-03_13:09:15:225]$GNRMC,060916.000,A,2055.282511,N,10551.332807,E,0.11,000.00,030426,,,A,V*03
[2026-04-03_13:09:15:225]$GNVTG,000.00,T,,M,0.11,N,0.20,K,A*21
[2026-04-03_13:09:16:008]$GNGGA,060917.000,2055.282481,N,10551.333203,E,1,14,0.70,7.584,M,-20.560,M,,*5E
[2026-04-03_13:09:16:008]$GNGLL,2055.282481,N,10551.333203,E,060917.000,A,A*4B
[2026-04-03_13:09:16:008]$GNGSA,A,3,22,06,19,17,14,11,21,09,24,,,,1.04,0.70,0.77,1*02
[2026-04-03_13:09:16:008]$GNGSA,A,3,78,88,65,79,66,,,,,,,,1.04,0.70,0.77,2*02
[2026-04-03_13:09:16:008]$GNGSA,A,3,,,,,,,,,,,,,1.04,0.70,0.77,3*01
[2026-04-03_13:09:16:104]$GNGSA,A,3,,,,,,,,,,,,,1.04,0.70,0.77,4*06
[2026-04-03_13:09:16:104]$GPGSV,3,1,10,22,62,158,30,06,55,341,20,41,54,229,33,19,51,014,29,1*61
[2026-04-03_13:09:16:104]$GPGSV,3,2,10,17,45,059,33,14,42,157,31,11,41,274,34,21,28,199,21,1*65
[2026-04-03_13:09:16:104]$GPGSV,3,3,10,09,14,107,17,24,07,275,33,1*68
[2026-04-03_13:09:16:196]$GLGSV,2,1,05,78,61,255,29,88,34,005,29,65,30,095,25,79,27,320,29,1*7C
[2026-04-03_13:09:16:196]$GLGSV,2,2,05,66,18,147,30,1*45
[2026-04-03_13:09:16:196]$GAGSV,1,1,00,7*73
[2026-04-03_13:09:16:196]$GBGSV,1,1,00,1*76
[2026-04-03_13:09:16:196]$GNRMC,060917.000,A,2055.282481,N,10551.333203,E,0.05,000.00,030426,,,A,V*00
[2026-04-03_13:09:16:196]$GNVTG,000.00,T,,M,0.05,N,0.10,K,A*27
[2026-04-03_13:09:17:019]$GNGGA,060918.000,2055.282571,N,10551.333515,E,1,14,0.70,6.631,M,-20.560,M,,*53
[2026-04-03_13:09:17:019]$GNGLL,2055.282571,N,10551.333515,E,060918.000,A,A*4A
[2026-04-03_13:09:17:019]$GNGSA,A,3,22,06,19,17,14,11,21,09,24,,,,1.04,0.70,0.77,1*02
[2026-04-03_13:09:17:019]$GNGSA,A,3,78,88,65,79,66,,,,,,,,1.04,0.70,0.77,2*02
[2026-04-03_13:09:17:019]$GNGSA,A,3,,,,,,,,,,,,,1.04,0.70,0.77,3*01
[2026-04-03_13:09:17:124]$GNGSA,A,3,,,,,,,,,,,,,1.04,0.70,0.77,4*06
[2026-04-03_13:09:17:124]$GPGSV,3,1,10,22,62,158,29,06,55,341,18,41,54,229,33,19,51,014,29,1*62
[2026-04-03_13:09:17:124]$GPGSV,3,2,10,17,45,059,33,14,42,157,30,11,41,274,34,21,28,199,22,1*67
[2026-04-03_13:09:17:124]$GPGSV,3,3,10,09,14,107,18,24,07,275,31,1*65
[2026-04-03_13:09:17:228]$GLGSV,2,1,05,78,61,255,29,88,34,005,29,65,30,095,25,79,27,320,28,1*7D
[2026-04-03_13:09:17:228]$GLGSV,2,2,05,66,18,147,30,1*45
[2026-04-03_13:09:17:228]$GAGSV,1,1,00,7*73
[2026-04-03_13:09:17:228]$GBGSV,1,1,00,1*76
[2026-04-03_13:09:17:228]$GNRMC,060918.000,A,2055.282571,N,10551.333515,E,0.05,000.00,030426,,,A,V*01
[2026-04-03_13:09:17:228]$GNVTG,000.00,T,,M,0.05,N,0.10,K,A*27
[2026-04-03_13:09:18:014]$GNGGA,060919.000,2055.282698,N,10551.333641,E,1,14,0.70,5.833,M,-20.560,M,,*5B
[2026-04-03_13:09:18:014]$GNGLL,2055.282698,N,10551.333641,E,060919.000,A,A*4D
[2026-04-03_13:09:18:014]$GNGSA,A,3,22,06,19,17,14,11,21,09,24,,,,1.04,0.70,0.77,1*02
[2026-04-03_13:09:18:014]$GNGSA,A,3,78,88,65,79,66,,,,,,,,1.04,0.70,0.77,2*02
[2026-04-03_13:09:18:014]$GNGSA,A,3,,,,,,,,,,,,,1.04,0.70,0.77,3*01
[2026-04-03_13:09:18:111]$GNGSA,A,3,,,,,,,,,,,,,1.04,0.70,0.77,4*06
[2026-04-03_13:09:18:111]$GPGSV,3,1,10,22,62,158,29,06,55,341,17,41,54,229,34,19,51,014,29,1*6A
[2026-04-03_13:09:18:111]$GPGSV,3,2,10,17,45,059,33,14,42,157,29,11,41,274,34,21,28,199,21,1*6C
[2026-04-03_13:09:18:111]$GPGSV,3,3,10,09,14,107,19,24,07,275,31,1*64
[2026-04-03_13:09:18:209]$GLGSV,2,1,05,78,61,255,29,88,34,005,29,65,30,095,25,79,27,320,28,1*7D
[2026-04-03_13:09:18:209]$GLGSV,2,2,05,66,18,147,29,1*4D
[2026-04-03_13:09:18:209]$GAGSV,1,1,00,7*73
[2026-04-03_13:09:18:209]$GBGSV,1,1,00,1*76
[2026-04-03_13:09:18:209]$GNRMC,060919.000,A,2055.282698,N,10551.333641,E,0.06,000.00,030426,,,A,V*05
[2026-04-03_13:09:18:209]$GNVTG,000.00,T,,M,0.06,N,0.11,K,A*25
[2026-04-03_13:09:19:023]$GNGGA,060920.000,2055.282865,N,10551.333845,E,1,14,0.70,5.246,M,-20.560,M,,*5F
[2026-04-03_13:09:19:023]$GNGLL,2055.282865,N,10551.333845,E,060920.000,A,A*41
[2026-04-03_13:09:19:023]$GNGSA,A,3,22,06,19,17,14,11,21,09,24,,,,1.04,0.70,0.77,1*02
[2026-04-03_13:09:19:023]$GNGSA,A,3,78,88,65,79,66,,,,,,,,1.04,0.70,0.77,2*02
[2026-04-03_13:09:19:023]$GNGSA,A,3,,,,,,,,,,,,,1.04,0.70,0.77,3*01
[2026-04-03_13:09:19:108]$GNGSA,A,3,,,,,,,,,,,,,1.04,0.70,0.77,4*06
[2026-04-03_13:09:19:108]$GPGSV,3,1,10,22,62,158,29,06,55,341,18,41,54,229,38,19,51,014,29,1*69
[2026-04-03_13:09:19:108]$GPGSV,3,2,10,17,45,059,33,14,42,157,30,11,41,274,35,21,28,199,20,1*64
[2026-04-03_13:09:19:108]$GPGSV,3,3,10,09,14,107,19,24,07,275,31,1*64
[2026-04-03_13:09:19:232]$GLGSV,2,1,05,78,61,255,28,88,34,005,29,65,30,095,24,79,27,320,29,1*7C
[2026-04-03_13:09:19:232]$GLGSV,2,2,05,66,18,147,30,1*45
[2026-04-03_13:09:19:232]$GAGSV,1,1,00,7*73
[2026-04-03_13:09:19:232]$GBGSV,1,1,00,1*76
[2026-04-03_13:09:19:232]$GNRMC,060920.000,A,2055.282865,N,10551.333845,E,0.02,000.00,030426,,,A,V*0D
[2026-04-03_13:09:19:232]$GNVTG,000.00,T,,M,0.02,N,0.04,K,A*25
[2026-04-03_13:09:20:013]$GNGGA,060921.000,2055.283009,N,10551.333882,E,1,14,0.70,4.823,M,-20.560,M,,*5E
[2026-04-03_13:09:20:013]$GNGLL,2055.283009,N,10551.333882,E,060921.000,A,A*48
[2026-04-03_13:09:20:013]$GNGSA,A,3,22,06,19,17,14,11,21,09,24,,,,1.04,0.70,0.77,1*02
[2026-04-03_13:09:20:013]$GNGSA,A,3,78,88,65,79,66,,,,,,,,1.04,0.70,0.77,2*02
[2026-04-03_13:09:20:013]$GNGSA,A,3,,,,,,,,,,,,,1.04,0.70,0.77,3*01
[2026-04-03_13:09:20:117]$GNGSA,A,3,,,,,,,,,,,,,1.04,0.70,0.77,4*06
[2026-04-03_13:09:20:117]$GPGSV,3,1,10,22,62,158,29,06,55,341,18,41,54,229,39,19,51,014,29,1*68
[2026-04-03_13:09:20:117]$GPGSV,3,2,10,17,45,059,33,14,42,157,31,11,41,274,35,21,28,199,12,1*64
[2026-04-03_13:09:20:117]$GPGSV,3,3,10,09,14,107,18,24,07,275,31,1*65
[2026-04-03_13:09:20:209]$GLGSV,2,1,05,78,61,255,28,88,34,005,29,65,30,095,23,79,27,320,29,1*7B
[2026-04-03_13:09:20:209]$GLGSV,2,2,05,66,18,147,30,1*45
[2026-04-03_13:09:20:209]$GAGSV,1,1,00,7*73
[2026-04-03_13:09:20:209]$GBGSV,1,1,00,1*76
[2026-04-03_13:09:20:209]$GNRMC,060921.000,A,2055.283009,N,10551.333882,E,0.09,000.00,030426,,,A,V*0F
[2026-04-03_13:09:20:209]$GNVTG,000.00,T,,M,0.09,N,0.17,K,A*2C
[2026-04-03_13:09:21:015]$GNGGA,060922.000,2055.283063,N,10551.333875,E,1,14,0.70,4.934,M,-20.560,M,,*5E
[2026-04-03_13:09:21:015]$GNGLL,2055.283063,N,10551.333875,E,060922.000,A,A*4F
[2026-04-03_13:09:21:015]$GNGSA,A,3,22,06,19,17,14,11,21,09,24,,,,1.04,0.70,0.77,1*02
[2026-04-03_13:09:21:015]$GNGSA,A,3,78,88,65,79,66,,,,,,,,1.04,0.70,0.77,2*02
[2026-04-03_13:09:21:015]$GNGSA,A,3,,,,,,,,,,,,,1.04,0.70,0.77,3*01
[2026-04-03_13:09:21:123]$GNGSA,A,3,,,,,,,,,,,,,1.04,0.70,0.77,4*06
[2026-04-03_13:09:21:123]$GPGSV,3,1,10,22,62,158,29,06,55,341,18,41,54,229,39,19,51,014,30,1*60
[2026-04-03_13:09:21:123]$GPGSV,3,2,10,17,45,059,34,14,42,157,31,11,41,274,35,21,28,199,14,1*65
[2026-04-03_13:09:21:123]$GPGSV,3,3,10,09,14,107,18,24,07,275,31,1*65
[2026-04-03_13:09:21:223]$GLGSV,2,1,05,78,61,255,27,88,34,005,29,65,30,095,23,79,27,320,29,1*74
[2026-04-03_13:09:21:223]$GLGSV,2,2,05,66,18,147,30,1*45
[2026-04-03_13:09:21:223]$GAGSV,1,1,00,7*73
[2026-04-03_13:09:21:223]$GBGSV,1,1,00,1*76
[2026-04-03_13:09:21:223]$GNRMC,060922.000,A,2055.283063,N,10551.333875,E,0.08,000.00,030426,,,A,V*09
[2026-04-03_13:09:21:223]$GNVTG,000.00,T,,M,0.08,N,0.14,K,A*2E
[2026-04-03_13:09:22:013]$GNGGA,060923.000,2055.282925,N,10551.333941,E,1,14,0.70,5.134,M,-20.560,M,,*5A
[2026-04-03_13:09:22:013]$GNGLL,2055.282925,N,10551.333941,E,060923.000,A,A*42
[2026-04-03_13:09:22:013]$GNGSA,A,3,22,06,19,17,14,11,21,09,24,,,,1.04,0.70,0.77,1*02
[2026-04-03_13:09:22:013]$GNGSA,A,3,78,88,65,79,66,,,,,,,,1.04,0.70,0.77,2*02
[2026-04-03_13:09:22:013]$GNGSA,A,3,,,,,,,,,,,,,1.04,0.70,0.77,3*01
[2026-04-03_13:09:22:116]$GNGSA,A,3,,,,,,,,,,,,,1.04,0.70,0.77,4*06
[2026-04-03_13:09:22:116]$GPGSV,3,1,10,22,62,158,29,06,55,341,18,41,54,229,39,19,51,014,30,1*60
[2026-04-03_13:09:22:116]$GPGSV,3,2,10,17,45,059,34,14,42,157,31,11,41,274,35,21,28,199,16,1*67
[2026-04-03_13:09:22:116]$GPGSV,3,3,10,09,14,107,18,24,07,275,31,1*65
[2026-04-03_13:09:22:228]$GLGSV,2,1,05,78,61,255,27,88,34,005,29,65,30,095,23,79,27,320,29,1*74
[2026-04-03_13:09:22:228]$GLGSV,2,2,05,66,18,147,30,1*45
[2026-04-03_13:09:22:228]$GAGSV,1,1,00,7*73
[2026-04-03_13:09:22:228]$GBGSV,1,1,00,1*76
[2026-04-03_13:09:22:228]$GNRMC,060923.000,A,2055.282925,N,10551.333941,E,0.08,000.00,030426,,,A,V*04
[2026-04-03_13:09:22:228]$GNVTG,000.00,T,,M,0.08,N,0.15,K,A*2F
[2026-04-03_13:09:23:014]$GNGGA,060924.000,2055.282835,N,10551.334031,E,1,14,0.70,5.419,M,-20.559,M,,*54
[2026-04-03_13:09:23:014]$GNGLL,2055.282835,N,10551.334031,E,060924.000,A,A*4C
[2026-04-03_13:09:23:014]$GNGSA,A,3,22,06,19,17,14,11,21,09,24,,,,1.04,0.70,0.77,1*02
[2026-04-03_13:09:23:014]$GNGSA,A,3,78,88,65,79,66,,,,,,,,1.04,0.70,0.77,2*02
[2026-04-03_13:09:23:014]$GNGSA,A,3,,,,,,,,,,,,,1.04,0.70,0.77,3*01
[2026-04-03_13:09:23:114]$GNGSA,A,3,,,,,,,,,,,,,1.04,0.70,0.77,4*06
[2026-04-03_13:09:23:114]$GPGSV,3,1,10,22,62,158,28,06,55,341,18,41,54,229,39,19,51,014,30,1*61
[2026-04-03_13:09:23:114]$GPGSV,3,2,10,17,45,059,34,14,42,157,31,11,41,274,35,21,28,199,15,1*64
[2026-04-03_13:09:23:114]$GPGSV,3,3,10,09,14,107,18,24,07,275,31,1*65
[2026-04-03_13:09:23:226]$GLGSV,2,1,05,78,61,255,27,88,34,005,28,65,30,095,23,79,27,320,29,1*75
[2026-04-03_13:09:23:226]$GLGSV,2,2,05,66,18,147,30,1*45
[2026-04-03_13:09:23:226]$GAGSV,1,1,00,7*73
[2026-04-03_13:09:23:226]$GBGSV,1,1,00,1*76
[2026-04-03_13:09:23:226]$GNRMC,060924.000,A,2055.282835,N,10551.334031,E,0.03,000.00,030426,,,A,V*01
[2026-04-03_13:09:23:226]$GNVTG,000.00,T,,M,0.03,N,0.05,K,A*25
